customer_id,name,phone_number,address,email,source,state,longitude,latitude,zip
487,Dean Carter,001-325-477-3773x364,47821 Jackson Shore Suite 370 South Carolyn_ MN 47541,bonnieescobar@example.org,Telegram,FI,24.95034,60.18427,81011
526,Stephen Rodriguez,854.587.9488,5287 Green Ferry New Douglasland_ AZ 28511,kyle93@example.org,Affiliate,DE,11.34046,50.72043,03762
304,Lauren Hammond,969-795-6199,10498 Martinez Trace North Jenna_ SC 62146,ayoung@example.net,Twitter,IN,76.12647,32.55531,99452
457,Angela Wood,+1-373-028-3909x384,738 Michael Key Gregoryborough_ MA 37601,browncatherine@example.net,Facebook,US,-88.31476,36.61033,32289
722,Sonya Green,553-103-2574,Unit 2026 Box 9862 DPO AE 12927,qwatkins@example.net,Instagram,IN,86.68363,23.49668,19220
370,Billy Hill,924.097.4811x413,439 Alyssa Row Suite 752 Rodriguezchester_ CT 08500,patricianguyen@example.net,Instagram,BR,-45.94722,-21.42917,31642
473,Crystal Horn,(052)683-5542,291 Miguel Keys South Aaronshire_ MA 96083,melissamoore@example.com,Instagram,DE,8.64409,48.07667,77542
366,Donald English,068-877-9391,9396 Hoover Ports Suite 015 New Emma_ CA 31315,traceyneal@example.net,Affiliate,US,-76.72803,39.32288,91064
895,Todd Rivers,+1-549-968-3045,30685 Sara Isle Lucasview_ MA 68709,santiagochristina@example.com,Yahoo,DZ,4.08282,36.61954,41858
124,Kimberly Barron,(002)650-5589,Unit 9681 Box 1983 DPO AE 42805,fthomas@example.org,Whatsapp,PG,144.23058,-5.85746,33281
5,Jeffrey Brown,091.634.5792x302,419 Wade Bridge Suite 698 Deborahfurt_ TN 33391,annsmith@example.net,Facebook,BR,-42.98194,-22.53722,85294
274,Matthew Hogan,936-385-1198,696 Steven Cliff Apt. 079 Feliciaville_ LA 15548,thomasjaime@example.net,Facebook,BR,-63.90389,-8.76194,13162
446,Michael Garcia,764-636-9303x1159,2418 Blake Tunnel Johnsonfurt_ WY 14764,psanchez@example.net,Whatsapp,BG,27.25,42.7,33386
632,Joshua Wells,545-387-0714,684 Damon Road Davidville_ FL 88782,tyler26@example.com,Whatsapp,AU,153.10236,-27.50578,68621
624,Shane Yu,001-847-709-1836,91829 Jones Road South Tiffany_ NM 97321,harveymelissa@example.net,Facebook,IT,14.34085,40.87363,85179
977,Eugene Barker,(909)520-8624x16780,529 Brian Point Michaelmouth_ MT 54309,veganathan@example.net,Twitter,RU,83.62389,53.30972,87496
858,Sandra Dillon,+1-218-800-1151x8527,086 Wang Camp Justinmouth_ NC 30669,timothy11@example.org,Yahoo,BJ,2.59753,8.88649,48389
689,Darrell Hutchinson,1822804299,PSC 3715_ Box 4465 APO AA 42526,markfoster@example.net,Telegram,US,-72.86843,41.27621,64277
863,Sierra Pitts,(052)850-7567x49247,2250 Miller Ports Suite 831 Lake Rebekah_ TN 89762,andrewlee@example.com,Whatsapp,US,-117.23991,47.64995,49945
499,Jesus Wells,012.193.1661,48736 Santiago Grove Apt. 908 Mcneilhaven_ NH 32722,nevans@example.net,Affiliate,IE,-7.95,53.43333,14053
741,Brandon Jones,086.235.6841x70997,2961 Adam Viaduct Port Eric_ LA 77540,michael26@example.org,Yahoo,IN,72.93924,18.87813,88836
38,Scott Nichols,(408)115-5170x2840,82222 Sherry Road Suite 076 East Johnport_ GA 31720,jeremy67@example.com,Telegram,RU,111.4834,65.93381,65516
8,Rebecca Wilson,285-124-0003x485,USS Mathis FPO AP 80139,djoseph@example.net,Yahoo,AU,150.99292,-33.75881,36508
31,Paul Smith,9255445769,29072 Noble Stravenue Browningview_ RI 25097,dunnrodney@example.org,Telegram,CO,-75.87877,5.6561,20562
194,Briana Bell,004.290.7459,5656 Roberson Fields Suite 730 West Michellestad_ GA 82212,tandrade@example.com,Twitter,JP,137.4,34.81667,45748
599,Cody Gutierrez,001-526-071-1359x6609,1194 Vargas Keys Apt. 649 West Mauricestad_ PA 10873,whitney85@example.org,Twitter,UZ,69.67639,41.29444,38453
924,Jose Adams,210.577.5394x262,9329 Stacy Fall Lake Juan_ WV 55668,andersonsabrina@example.net,Telegram,PH,121.12251,14.62578,56203
56,Joseph Ortiz,975-243-6400,55840 Melissa Square Apt. 490 Barnesshire_ KS 41493,tpreston@example.org,Yahoo,IT,12.84052,45.78071,12154
462,Kirk Jones,517-864-2176,33850 Harrison Crescent Port Karen_ ID 34272,rodgerschristopher@example.org,Twitter,CN,115.04814,30.24706,49898
537,Ashley Page,514.678.8585x672,625 Cantrell Lake Lake Heather_ RI 24812,ybrown@example.com,Whatsapp,US,-76.51552,39.32011,94348
835,Lori Hoffman,(284)127-9437,5873 Brown Inlet Apt. 396 Lake Adrianstad_ LA 33216,aguilarjason@example.net,Whatsapp,PE,-73.25383,-3.74912,76012
888,Lisa Harper,403-888-1965,726 Gonzales Motorway New Paulfurt_ NM 59821,martinezkristin@example.com,Whatsapp,US,-75.64963,40.24537,77237
634,John Mcgrath,001-814-929-7876x00908,58836 Phillip Vista Meganburgh_ DE 32119,allen70@example.net,Twitter,US,-86.78777,33.44872,23812
603,Matthew Gonzalez,(648)563-6392x748,3435 Greene Isle Velazquezview_ MA 59715,hendersonangela@example.net,Affiliate,NG,8.2926,9.58126,20897
98,Stephanie Stewart,475-867-5484x785,4037 Powell Streets Apt. 273 New Shelley_ CA 35979,brendalopez@example.com,Facebook,PS,35.23388,31.78336,17450
815,Daniel Mcpherson,(516)527-4091,2476 Schwartz Valley Jimenezside_ DE 72215,marysoto@example.com,Yahoo,TH,100.04427,13.8196,12937
635,Kari Gibson,(148)336-8992,5902 Lauren Drive Apt. 911 North Deborahville_ ID 28064,debbiesalazar@example.net,Telegram,BR,-44.31389,-19.7625,66865
385,Dennis Mcdonald,(374)771-6259,55073 Brown Circle Suite 148 Christensenville_ OH 69310,johnsondeborah@example.net,Whatsapp,US,-96.67834,34.77453,36682
315,Ronald Ward,8687889963,44867 Gutierrez Crescent Gibsonfort_ VA 28117,cunninghamtonya@example.com,Yahoo,MK,21.32778,42,96749
107,Christopher Johnson,298-928-6405,794 Hensley Trail Port Johnview_ MA 87813,bensonjoseph@example.com,Affiliate,MX,-99.32556,19.32889,15055
999,Samantha Mcknight DDS,1962591882,1705 Gordon Center North Benjaminland_ KS 04341,mossdanielle@example.org,Whatsapp,IN,85.94001,25.49043,18836
382,Joshua Jones,+1-953-831-0046x5100,5895 Garcia Unions West Joseph_ NC 07270,isims@example.org,Instagram,CD,24.99798,-8.73508,55510
484,Karen Baldwin,785-276-1882x59256,26338 Pamela Knoll Suite 370 Carterfort_ UT 21501,joann27@example.org,Telegram,US,-87.88754,41.15376,94117
310,Christine Smith,(757)365-1309,15227 Deleon Squares Suite 013 Hamiltonmouth_ TN 88841,hwilliams@example.com,Telegram,MG,48.41667,-17.83333,84019
432,Jessica Mitchell,0001831222,6234 Kimberly Parkways Apt. 218 Hartstad_ NC 67220,hhall@example.net,Affiliate,IN,77.5609,11.00599,17554
659,Ann Campbell,001-818-978-3536x8258,PSC 7027_ Box 6730 APO AP 29430,henrybrianna@example.org,Instagram,US,-73.9625,40.81,34293
211,Kathleen Howard,2718526507,PSC 6925_ Box 7735 APO AP 82072,lowejeffrey@example.net,Facebook,IN,75.16878,30.81383,82835
687,Thomas Kirk,+1-520-899-0444x447,049 Morgan Way Strongfurt_ KS 53556,tina65@example.org,Whatsapp,CO,-73.9614,10.15031,46628
72,James Finley,+1-182-726-4832x1475,6682 Diana Inlet Blackshire_ IL 61935,petermiller@example.net,Yahoo,MY,100.24529,5.4709,51942
865,Shannon Stone,(502)610-9638x3014,328 Adkins Cliffs Suite 171 Jessicafurt_ VT 00765,frank69@example.net,Affiliate,JP,129.96972,33.4425,93463
444,Natalie Sullivan,731.057.2663x7569,6965 Omar Parkway North Phillipland_ NE 05215,amandaanderson@example.org,Instagram,IN,78.14797,15.45144,55405
460,Scott Webb,(076)977-3693x205,12073 Blackburn Locks Suite 483 Davismouth_ MT 96316,brose@example.net,Telegram,MY,116.10146,5.90702,44369
781,Dr. Brett Peterson,318.094.3401,1792 Lane Villages Suite 450 Youngport_ VA 62756,xadams@example.org,Affiliate,US,-74.96933,39.71734,43743
572,Matthew Williams,076-409-9202,646 Brown Course Lake Mallory_ MT 67644,johnrowe@example.net,Whatsapp,CA,-79.2663,43.86682,68347
440,Joshua Martin,(916)986-8621,209 Manning Course Brownton_ OH 09816,bwade@example.com,Facebook,PH,123.758,10.20898,74658
612,Latoya Robertson,027-857-2893,544 Moran Road North Scottton_ WV 93353,prattstephanie@example.org,Affiliate,RU,36.73307,55.38752,78486
828,Walter Coleman,236.952.8587x5991,1859 Diaz Mews Holmesland_ PA 72699,richardtaylor@example.org,Facebook,JP,136.13108,34.75856,13898
761,Anita Garcia,219.203.4814x108,281 Charles Extensions Port Albertmouth_ RI 27823,friley@example.net,Whatsapp,CR,-84.13722,9.92787,54486
498,Austin Watkins,089.498.6285x568,9719 Dunlap Meadow Apt. 627 North Mary_ SC 88459,garciabrian@example.org,Facebook,GB,-1.47217,53.46506,21437
368,Angel Richards,643.422.4512,35622 Tanner River Apt. 050 Thomasburgh_ RI 28281,haynesjacob@example.com,Telegram,US,-87.882,41.85059,68015
666,Michael Meyer,001-984-512-1636,52019 Rowe Dale South Matthew_ MI 57165,cheyennecase@example.net,Telegram,UA,25.34244,50.75932,69824
561,Kristin Cohen,904.832.0713x695,1538 Nicholas Locks Lake Krystal_ MN 76358,abigailchristensen@example.com,Yahoo,MX,-100.88023,20.21322,53699
223,Scott Cherry,327-615-0121x16762,345 Geoffrey Parkway Josephfurt_ WV 85764,christopher45@example.org,Telegram,US,-97.03285,47.92526,14354
857,Christopher Owens,(193)278-2994,64652 Cook Flat Sonyaburgh_ GA 70421,osuarez@example.net,Telegram,JP,139.07204,36.24624,72882
47,Mr. James Price MD,001-936-847-3580,3609 Richard Greens Apt. 521 Port Holly_ IN 06228,reyesadam@example.org,Affiliate,VN,105.75635,10.29085,44815
183,Carl Rollins,156.847.7759x411,67197 Sara Fall Port Laura_ MT 74039,garrett52@example.org,Yahoo,TH,101.18445,13.44581,57758
684,Cassandra Anthony,(415)904-5184x8290,PSC 1043_ Box 7226 APO AE 72079,hbaker@example.net,Instagram,US,-86.78777,33.44872,29805
442,Michelle Moore,834-837-4113x301,64474 Anthony Ports Apt. 280 Jacksonhaven_ MS 88877,twyatt@example.net,Affiliate,NL,5.74861,52.71083,43222
459,Maria Simmons,(347)907-0396,84006 Brian Rapids Petersonfort_ DC 62390,ismith@example.net,Affiliate,GE,41.77921,41.82143,66397
490,Ronald James,(590)892-5958x4489,Unit 3822 Box 3661 DPO AP 72958,cameronkennedy@example.org,Instagram,MY,100.24529,5.4709,34154
32,Brooke Rodriguez,896.644.4064x48885,Unit 3620 Box 8296 DPO AA 61335,hoffmanrobert@example.net,Affiliate,CU,-82.4017,23.0072,08796
152,Michelle Hernandez,(339)936-2749x1143,74476 Walker Points Suite 891 Vanessastad_ ND 19586,lbishop@example.com,Telegram,ID,106.92667,-6.91806,25195
153,Melanie Patrick,214-038-5685,USS Hale FPO AP 93076,mjohnson@example.net,Affiliate,ID,114.33333,-8.43333,35457
271,Anthony Cisneros,979.185.5855x49578,55613 Danielle Plaza Suite 485 Port Benjamin_ VT 38048,christopher72@example.com,Affiliate,DE,8.63333,52.2,80179
615,Kevin Warren,4453116571,PSC 8785_ Box 6223 APO AA 62975,hernandezbrian@example.org,Facebook,DO,-71.10077,18.20854,82261
81,Ronald Johnson,(011)416-3463x7988,0969 Justin Passage Thomasmouth_ WA 94588,melvin22@example.org,Yahoo,RU,133.42825,45.47885,22495
971,Sarah Donovan,+1-059-703-6843x18611,80089 Sheila Path New Michael_ IL 56428,phillip35@example.org,Yahoo,SE,17.10558,61.72744,22924
929,Joshua Jones,+1-175-075-5910x81265,94323 Cordova Crossing Apt. 737 Lake Katherine_ TX 18420,jwhite@example.net,Whatsapp,RS,19.61222,44.97639,68994
660,Jessica Young,677.307.3632,6581 Flores Plains East Rickyville_ DE 91132,dallen@example.com,Affiliate,FR,2.2469,48.90472,24582
704,Mark Wilson Jr.,001-443-406-8446x56627,Unit 3656 Box 2176 DPO AA 60028,dennistaylor@example.com,Yahoo,MX,-89.66123,21.28306,26080
770,Kyle Lang,660.302.8816x42078,427 James Crescent Carlaville_ KS 58674,logan33@example.org,Affiliate,MA,-6.90656,33.92866,71100
319,Eugene Vincent,001-778-149-1401x800,5785 Roberts Ports Allenchester_ AR 18355,nhanson@example.com,Telegram,US,-81.23621,33.98154,76636
725,Jon Hays,462.047.0627,093 Mark Glen Peterview_ ND 47071,shari75@example.com,Yahoo,NG,3.64633,6.8485,27951
986,Tanya Ortiz,+1-134-280-7496,8115 Denise Route Apt. 935 Taraborough_ KY 03592,danny43@example.org,Whatsapp,AU,145.13643,-38.16604,25683
80,Dana Keith,001-748-276-0101,8184 Curtis Ridges Joybury_ DE 90155,seanmartin@example.com,Affiliate,HN,-86.57415,15.48131,59789
376,Richard Morrison,116-837-1673,89553 Villarreal Tunnel Apt. 570 West Casey_ WI 62914,breannacruz@example.net,Facebook,DZ,1.04945,35.06544,60456
543,Keith Harper,191-304-2651x0624,643 Jones Plaza North Anthony_ CT 52070,fsims@example.com,Yahoo,US,-88.31476,36.61033,66486
185,Nancy Patterson,001-546-698-4976x32742,44415 Adam Circles Alyssaton_ PA 85911,hsimmons@example.org,Instagram,GB,-0.33525,53.7446,61924
352,Sylvia Thomas,001-331-899-2784x129,3299 Cameron Center Apt. 868 Johnsonshire_ TN 90957,walkerregina@example.com,Twitter,CN,120.74221,31.64615,23376
909,Patricia Peterson,093.988.1061x7856,Unit 2063 Box 1583 DPO AA 41815,steveschmidt@example.com,Yahoo,RU,43.91385,54.03876,68589
825,Christina Walker,+1-877-637-5465x089,PSC 8561_ Box 3347 APO AE 31835,mhammond@example.com,Instagram,UA,33.9162,51.67822,53284
74,Jesse Davis,465-419-1759x913,07428 Stevenson Drive Apt. 855 West Rebeccaborough_ LA 68847,vcurtis@example.com,Yahoo,DE,8.61839,49.68369,01420
813,Marilyn Bennett,086.863.7147x2504,783 Potter Oval Snyderchester_ IA 72222,kristinaperez@example.com,Telegram,IN,86.68363,23.49668,99820
833,George Trevino,(803)098-1917x42830,685 Coleman Loop North Stephen_ DE 17827,jennifer04@example.com,Yahoo,GM,-15.6,13.56667,84117
643,David Orr,+1-477-234-9187x530,11244 Raymond Harbor Suite 394 Bryanmouth_ MD 73452,yatesjames@example.org,Whatsapp,BG,23.225,43.4125,58531
981,Mark Gardner,451-623-7083x27782,Unit 2819 Box 7534 DPO AA 61896,xbrooks@example.com,Affiliate,RU,38.02486,55.64776,39379
985,Julie Williams,062.686.5683,15125 Burton Plaza Port Jasonchester_ PA 53095,samuelanderson@example.net,Affiliate,US,-111.90466,40.34912,73127
802,Colin Hall,001-700-066-3660,Unit 1657 Box 5258 DPO AP 20041,tranjonathan@example.net,Affiliate,PH,122.8637,9.3337,28913
943,Brian Vazquez,514.767.0679,267 Moss Causeway Lake William_ AZ 68611,acostasherry@example.com,Facebook,US,-93.71133,41.57721,75625
530,Kevin Hobbs,059-542-9951,PSC 7455_ Box 3924 APO AE 02390,ksingleton@example.com,Affiliate,CL,-71.19901,-30.60106,72446
840,Krista Buchanan,855.590.2880,5940 Gary Square Suite 858 Darylton_ RI 42890,gonzalezlisa@example.net,Whatsapp,GB,-3.05814,53.00974,96361
769,Rachel Carter,+1-581-800-4153,44907 Jeffrey Ford Apt. 109 New Reginald_ AR 19196,aaron28@example.com,Facebook,IN,76.56719,24.41288,21247
629,Michelle Morris,+1-709-161-4080x123,30991 Davidson Forges South Eric_ VT 02076,ricky62@example.org,Telegram,PK,68.49143,25.80565,33189
980,Samantha Gardner,001-570-032-4496x772,1899 Figueroa Rapids West Pamelaton_ HI 30827,richardsonmichael@example.com,Instagram,BO,-65.71875,-21.44345,76171
812,Amanda Haynes,638-692-0272,7054 Anthony Parks Apt. 101 Nguyenfort_ NM 40498,blynch@example.com,Telegram,UA,30.96755,49.07866,88283
788,Emily Johnson,001-449-938-1424x265,Unit 4404 Box 2408 DPO AP 82142,antoniowebb@example.net,Twitter,US,-74.15987,40.82232,41226
162,Joseph Nunez,+1-764-903-5552x636,9834 Caitlin Bridge Cardenasview_ AK 05732,karareilly@example.org,Affiliate,PH,120.5875,16.455,80240
953,Chad Morales,(149)448-4716,40812 Jessica Roads New Christopher_ PA 60614,sarah91@example.org,Instagram,IN,85.94001,25.49043,84590
197,Michael Schaefer,426.033.6114x1526,23385 Alicia Shoals Kimberlyborough_ ID 36508,clarklisa@example.net,Whatsapp,NL,7.00417,52.26083,51342
817,Marc Oneal,897-265-1598x4247,258 Chavez Lodge Zavalaside_ GA 69967,rebecca30@example.net,Yahoo,JP,136.51667,35,90028
66,Gregory Waters,6558039171,088 Terri Port Bernardstad_ MA 35793,awebb@example.org,Affiliate,US,-122.39168,40.58654,82072
83,Jose Campbell,1566634768,472 Craig Meadows Suite 994 Kelleyport_ OR 85213,michaelcoleman@example.com,Instagram,US,-87.65644,41.80753,55404
710,Denise Howard,(906)550-8092x144,943 Melissa Circle New Douglas_ HI 60717,megan65@example.com,Telegram,US,-87.93341,42.55308,48181
67,Karen Swanson,(207)826-4973x079,759 Good Port New Russell_ MN 50437,john43@example.net,Telegram,RU,38.94324,44.98901,31454
173,Amanda Stafford,962-339-6982x203,PSC 1903_ Box 9110 APO AE 32971,jeffrussell@example.com,Facebook,MX,-105.36369,22.49396,43388
945,Jennifer Lutz,(508)320-2217,5256 Courtney Knoll Andremouth_ CA 37374,harrisdeborah@example.org,Instagram,US,-88.3162,42.24113,91094
23,Lisa Miller,587-540-8035x13853,448 Scott Key Apt. 048 North Stevenmouth_ MT 65195,falexander@example.org,Twitter,DE,8.77069,50.80904,45000
35,Carla Orozco,080.862.5911x8243,448 Lutz Drives Suite 820 Lake William_ WV 41930,leekrystal@example.net,Twitter,US,-73.89875,40.93121,40621
664,Micheal Mills,487.207.5226,2350 Livingston Crescent Apt. 231 New Jason_ OH 79523,heatherross@example.net,Telegram,RU,60.8019,56.9083,91171
527,James Schwartz,001-958-652-0923x282,34025 Mcdonald Groves Suite 678 Garnerfurt_ MT 79670,harrisrobert@example.org,Facebook,DE,13.10984,51.30001,64101
397,Michelle Smith,997-214-9828x7401,690 Reid Circles Suite 838 Ericfort_ WY 03326,qfarrell@example.com,Affiliate,RU,43.63417,43.96222,16911
573,Marissa Garner,(985)906-7032x785,8965 Hart Lakes Apt. 183 West Keith_ OK 58515,adam71@example.org,Whatsapp,FR,1.33467,43.61058,26340
901,Steven Mathews,9948874199,98206 Newman Centers Suite 112 Timothyport_ HI 98071,qking@example.com,Instagram,US,-71.08977,41.9001,29723
333,Laura Lee,806-088-7631x5953,10288 Boyd Meadows Suite 214 Jenniferberg_ DC 79594,emily86@example.net,Yahoo,PK,71.67164,30.29184,17630
165,Carl Moore,5771549240,USNV Green FPO AE 60630,farleytony@example.com,Affiliate,CN,111.73861,35.20889,78032
604,Caitlin Cardenas,001-997-491-0546,36847 Cervantes Squares Apt. 634 West Richardchester_ CT 69606,hstephens@example.com,Telegram,ID,101.44167,0.51667,46513
292,Kurt Valenzuela,(112)595-6161x81428,3421 Jacobs Spur Port Richardchester_ WY 30596,michaeldorsey@example.org,Yahoo,MX,-103.5687,20.22816,55966
157,Justin Higgins,+1-102-479-8244x999,72533 Julie Lock Suite 609 New Kylie_ CT 06738,njohnson@example.com,Facebook,MK,20.91361,41.92361,14297
216,Justin Patterson,001-448-459-4005x16597,220 Garza Ville Apt. 234 Stevenview_ ME 08562,lauriegeorge@example.com,Affiliate,ID,113.69785,-7.73379,50155
369,Austin Davis,001-313-633-7303x206,1560 Russell Keys Suite 565 Wendymouth_ TX 67044,gilbertamy@example.com,Whatsapp,US,-88.64235,46.09273,47275
583,Tara Sanchez,115.869.1999x4084,0398 Valenzuela Trace New Josetown_ NJ 86144,johnny38@example.net,Telegram,CN,126.28333,45.35,03665
261,Gary Ross,4517594939,54037 Hodge Junction South Kathleen_ SC 68560,grace55@example.com,Facebook,IT,12.70038,45.9836,91905
876,Misty Hinton,+1-962-036-8655x83427,4635 Rachel Green Apt. 187 West Brittanymouth_ IN 79208,anthonyreed@example.net,Yahoo,CN,126.28333,45.35,84635
425,Joseph Meyer,001-795-137-1843,005 Aimee Garden Lake Matthewbury_ MO 07549,barrmichael@example.org,Yahoo,KZ,84.87144,47.46657,14832
556,Mary Martin,+1-009-373-0980,35257 Jordan Rest Douglasborough_ HI 79541,savannahmendoza@example.com,Affiliate,TH,99.89166,15.46063,62105
286,Karen Blankenship,0723837796,80854 Martin Isle Apt. 170 Lake Miguelton_ MO 95934,cuevasgary@example.net,Facebook,DE,7.36027,51.20219,25472
284,James Barton,0643191984,3865 Russell Avenue Suite 889 North Albertport_ IL 02729,daniel36@example.net,Affiliate,IN,84.63445,24.81757,32531
673,Eric Dyer,382.717.0521x3960,654 Hicks Crescent Suite 001 West Abigail_ ND 16527,powellbrian@example.net,Whatsapp,PR,-66.8499,18.03496,04497
247,Alyssa Cruz,+1-107-911-9272x901,1567 Brian Crossing Apt. 707 Fernandeztown_ DC 91842,grodriguez@example.net,Twitter,BR,-53.13722,-22.92306,61043
3,Janice Johnston,232-094-7112x2018,339 Riley Mission Suite 515 South Brendamouth_ ID 32356,dennisdave@example.org,Instagram,IT,14.43865,40.87329,12511
100,Jeremy Page,+1-116-003-5635,PSC 9151_ Box 7974 APO AE 50782,coopergary@example.org,Telegram,FR,5.4584,43.32393,89154
437,Ellen Day,703-722-5872,994 Toni Harbor Apt. 585 Weissborough_ ME 82308,maria78@example.org,Facebook,RU,51.3452,53.37596,80444
362,Joseph Norman,(275)884-7469x01572,113 Allen Pass Apt. 210 North Daniel_ CO 25497,morgan97@example.net,Twitter,US,-75.60804,39.96097,31748
59,Andrew Dickerson,173.729.8409x25554,07396 Wells Mill Apt. 745 Melissafurt_ OR 53096,emily93@example.org,Yahoo,ES,-1.86343,38.10558,97595
1000,Paul Dennis,444-530-4884,14532 Ashley Shoal Apt. 837 Jasonborough_ NY 89054,penabailey@example.org,Whatsapp,BR,-35.03333,-8.28333,34348
309,Eric Smith,001-869-540-6186x50975,9187 Lisa Plains East Michael_ AR 02282,fuenteslinda@example.com,Yahoo,AU,145.06667,-37.88333,74299
946,Regina Bean,953.652.8976x78805,890 Sarah Centers Weavermouth_ NY 66576,rserrano@example.org,Facebook,GB,-4.22398,57.47908,61392
372,Catherine Peterson,277.834.1055,Unit 3027 Box 5873 DPO AA 12018,daniel94@example.org,Twitter,US,-86.78777,33.44872,53009
937,Benjamin Bowers,728.415.5942,835 Maddox Grove Suite 088 Bensonfurt_ MD 62844,aprilwebster@example.com,Instagram,UA,33.34864,46.75451,00991
343,Cynthia Gordon,7329618091,581 Davis Expressway Suite 435 Port Ashleyton_ DE 59102,ysims@example.org,Yahoo,IN,73.66633,25.92493,18831
167,Brittany Ramirez,474.353.2772x8366,4726 Cole Stream New Brent_ NC 98066,barrettbarbara@example.org,Yahoo,CN,109.22921,34.65918,28042
682,Kendra Newton,(599)563-1490x00973,2284 Jones Heights Christopherton_ SC 35271,petersendennis@example.com,Facebook,DZ,3.55665,36.72544,62213
733,Michael Little,001-120-243-1248x799,USNV Payne FPO AA 49631,kblevins@example.com,Instagram,IT,9.32241,44.31771,26859
617,Erica Roy,545-792-3558,4018 Stokes Corner Suite 344 New Mackenzie_ VT 90827,elizabeth75@example.org,Instagram,IN,75.92694,14.46693,08249
76,Leah Owens,948-623-1982x730,299 Carlos Harbors West Cindyshire_ KS 76302,tbraun@example.org,Twitter,US,-73.97069,40.64621,93646
231,Caitlin Hill,1445662981,5497 Olivia Square Suite 161 Seanburgh_ PA 17744,klee@example.net,Facebook,EE,28.19028,59.37722,87931
983,Sara Gibson,(174)428-9590,7098 Carrie Prairie Suite 345 Port Ashleymouth_ WY 69261,kaitlyn09@example.net,Twitter,PH,123.99333,12.97389,93891
420,Sarah Howard,+1-376-001-3027,12324 Cardenas Circles Apt. 103 Dawnview_ MT 89678,kaylamitchell@example.com,Instagram,IT,12.70038,45.9836,33115
821,Rickey Holloway,001-357-841-9693x5446,4674 Matthew Lodge Suite 613 Stephanieborough_ ND 89562,dustinmorgan@example.org,Facebook,FR,-0.45877,46.32313,07557
693,Katherine Wallace,814.528.2046,05367 Alvarado Point South Jason_ DE 06968,richard78@example.net,Affiliate,PL,18.30056,50.5107,38107
899,Kristen Li,001-456-138-3499x9043,64048 Caleb Branch Suite 759 West Jillianhaven_ WV 98842,comptonnicole@example.org,Affiliate,US,-86.11084,41.75338,94116
904,Marcus Wilson,3097906441,392 Perry Rapid East Nancy_ MI 12095,vanessawest@example.net,Affiliate,DE,12.1369,51.04962,85616
386,Natasha Solis,+1-301-973-6544x807,398 Michael Parks Davisland_ TN 46271,david24@example.org,Telegram,JP,138.89585,36.33011,04543
96,Luis Edwards,597.844.0992x4388,7210 Moreno Pines Bergmouth_ WY 44788,yolandabraun@example.org,Telegram,GB,-1.48119,53.0233,18062
91,Kayla Shaw,(460)068-1400x76858,792 Catherine Fords Suite 613 East Kristinamouth_ DC 65657,meghan27@example.com,Yahoo,AU,153.10236,-27.50578,66029
258,Benjamin Simmons,001-316-954-9526x0921,83755 Tran Key Laceybury_ KY 41084,adamvelasquez@example.com,Instagram,AU,150.60036,-34.88422,83787
275,Rhonda Gonzalez,923.332.3132,5222 Green River Suite 843 East Andrew_ GA 65143,davidwood@example.org,Facebook,RU,38.94324,44.98901,64486
409,Tonya Mendoza,001-488-300-4242x828,98027 Tiffany Alley Apt. 096 West Dawnland_ FL 17933,russellruben@example.net,Telegram,IT,7.60872,43.78956,65740
958,Gina Bowman,597-739-7625x2177,30968 Casey Run Apt. 363 Hernandezburgh_ IN 16111,lewisnicole@example.net,Affiliate,MY,101.02083,4.02219,53353
970,Kelly Cummings,780.917.7898,0587 Ryan Court Apt. 005 Melanieville_ AZ 86132,anna96@example.net,Yahoo,RU,38.2739,46.7055,41759
731,Karen Carr,528-108-9150,71103 Jody Mall East Carolynstad_ CT 83696,qfarrell@example.org,Telegram,TZ,33,-2.68333,83960
613,Aaron Freeman,001-700-621-9871x22597,212 Phillips Ridges Suite 812 Port James_ IA 37102,rossalexis@example.org,Facebook,PA,-79.62603,8.88988,15987
435,Bradley Nicholson,958-506-9838,93069 Johnston Flats East Emilystad_ MO 38999,johnsonwhitney@example.org,Whatsapp,FR,4.8951,44.92801,49743
34,Jean Beard,9759294506,19550 James Creek Williamstown_ MO 16920,richard29@example.org,Yahoo,IR,48.26258,33.86419,83780
97,Vanessa Olson,(018)021-0543,25689 Kemp Fords Cortezbury_ AL 58949,perrykimberly@example.org,Telegram,TH,100.48528,14.37395,97190
962,Valerie Cox,204-856-7684,47539 Shannon Meadows Apt. 001 East Andrew_ WA 14335,adrian11@example.org,Whatsapp,UA,38.15035,49.41029,54807
135,William Knight,+1-593-803-7862,348 Joseph Passage Heatherport_ DC 05323,colleenwall@example.com,Instagram,FR,2.1699,48.98994,37553
82,John Kramer,001-430-178-2369x582,7503 Carlos Curve Apt. 886 Jaredchester_ ND 63045,jocelyn03@example.net,Instagram,GB,-0.2,51.65,84738
947,Monica Baker,888.029.4469,Unit 4944 Box 7791 DPO AE 03087,raystacy@example.com,Whatsapp,TH,100.48528,14.37395,67938
596,Crystal Alexander,(517)526-5373,Unit 1803 Box 1773 DPO AE 73027,willie89@example.org,Telegram,US,-122.23484,47.38093,21628
764,Caleb Baxter,539.502.3184x61398,8447 Moore Mill Spencerhaven_ SC 06192,lisa39@example.com,Telegram,MX,-93.11308,16.75973,63293
768,Adam Romero DDS,+1-591-717-6100,0188 Kevin Locks Apt. 649 South Jenna_ AR 39363,qlove@example.net,Twitter,US,-83.48216,42.30865,35452
760,Sean Rojas,580.639.3332,06657 Burgess Creek New Thomasburgh_ KS 86913,gregorycochran@example.net,Affiliate,TN,10.03478,37.16911,29515
249,Kevin Roberts,907-424-3074x70153,3612 Bradford Haven New Melissa_ WA 60179,oreyes@example.net,Affiliate,ID,109.3243,-7.0981,44994
467,Noah Mcdaniel,001-642-850-9115x3787,518 Joshua Common Woodton_ IL 64762,waynerobinson@example.org,Yahoo,DE,8.96317,48.35149,36089
350,Kenneth Walsh,001-377-830-0803,USS French FPO AP 16973,fletcherkelly@example.com,Affiliate,US,-99.73314,32.44874,24722
371,Shannon Smith,001-903-553-2770x8400,68656 John Corner Ryanburgh_ DC 23549,johnlowe@example.net,Instagram,IN,83.36889,26.76628,97357
560,Ryan Jones,001-606-972-0463x79603,0087 Michael Springs Krystalville_ DE 96429,jensensandra@example.com,Facebook,RU,38.02486,55.64776,27922
150,Grant Conner MD,+1-057-571-1844x9657,Unit 5768 Box 0685 DPO AP 01351,kim09@example.com,Telegram,US,-94.74049,32.5007,57821
486,Lisa Soto,(849)500-5690,972 Gary Lake South Jermaine_ TX 92513,jennifer81@example.com,Instagram,FR,-4.1,48,04293
885,Victoria Brown,001-289-347-5091,307 Amanda Keys Suite 857 South Jordanland_ AZ 59121,thomasdavid@example.org,Twitter,CN,126.28333,45.35,06304
653,Timothy Murphy,798-589-7754x31974,106 Lee Knolls Suite 247 East Lauraville_ WV 02660,candicebuchanan@example.org,Affiliate,US,-73.95097,40.72371,45176
407,Jerry Hayes,145-009-0750x600,450 Watts Wells Lake Jenniferbury_ MS 20912,zachary80@example.com,Whatsapp,FR,2.2469,48.90472,21926
810,David Matthews,554.782.6333x568,52246 Mark Cape East Brendanland_ TX 86129,lovemelissa@example.com,Facebook,TZ,29.65806,-4.83,93671
26,Erin Richards,2622812379,23659 Cristina Coves New Caitlinfort_ ME 02157,angelamartin@example.com,Affiliate,CN,115.70111,37.73222,02532
455,Lynn Weaver,+1-267-114-4894,33230 Waters Green Suite 583 West Gregory_ IA 27240,alleneric@example.net,Affiliate,US,-87.70172,41.72059,13340
973,Angel Suarez,377.829.1983x1597,81440 Hannah Street Port Raymondborough_ MI 23538,richardgarrett@example.net,Telegram,IN,78.55757,17.34769,23682
354,Omar Barnett,001-229-021-9198x48760,376 Wright Prairie Lake Katherinefurt_ FL 83249,darrell13@example.com,Affiliate,RU,30.38167,59.80917,40719
228,Jennifer Murphy,(033)662-7488,3065 Darren Garden Suite 655 East Katie_ MS 14781,lcarrillo@example.net,Whatsapp,IN,77.9129,25.6439,50184
252,Michael Flowers,+1-031-403-2696x517,679 Stacie Ville East Thomaschester_ WV 34862,jacquelinecollins@example.org,Facebook,BR,-42.19667,-21.41222,42358
581,Edward Patterson,+1-017-585-4868,937 Ball Cliff Apt. 970 Cooperport_ VT 89727,darlenewalker@example.net,Instagram,US,-116.21677,33.7207,59800
591,Tracy Reed,+1-195-455-0217,512 Robert Shoal Suite 293 South Jaredbury_ UT 55651,alexis32@example.net,Twitter,PH,122.8637,9.3337,11351
476,Karina Lowe,+1-254-709-1414x530,6894 Timothy Passage Apt. 282 West Taraview_ SC 56658,willie82@example.org,Twitter,GB,0.75,52.41667,86156
345,Daniel Thomas,001-953-374-7863x43612,1002 Roberts Valley Apt. 871 Port Danielleburgh_ MI 32492,nicole30@example.com,Twitter,US,-122.24064,47.80527,92149
395,Gary Barrett,001-795-588-6961,318 Wright Mountains Smithport_ AK 65326,hernandezkenneth@example.org,Whatsapp,TH,101.18445,13.44581,02672
877,Jennifer Garcia,001-702-269-2971x21870,75307 Taylor Mews Tinamouth_ MT 64356,marycarroll@example.org,Whatsapp,IT,8.55552,40.72586,19659
294,Rachel Warner,0433982217,555 Stevens Stream Suite 060 New Markside_ NY 88388,shelbylong@example.org,Yahoo,US,-111.78903,33.35283,14332
70,Michelle Barton,001-983-442-2932,7429 Harris Dale Dicksonburgh_ OR 02754,amanda72@example.net,Instagram,CA,-119.48568,49.88307,77583
349,Kristin Peters,+1-108-407-1512,USNS Johnson FPO AE 09709,triley@example.com,Yahoo,CN,117.33333,34.85,59276
558,Mercedes Robles,8500401823,6087 John Square Vincentview_ MA 25199,kellypace@example.net,Instagram,US,-121.75689,36.91023,46542
698,Scott Smith,665-268-8790x260,733 Reynolds Forge Suite 531 Ewingbury_ MT 27220,michaelholmes@example.org,Yahoo,UG,30.91105,3.02013,56070
607,Victoria Johnson,451-909-1678,48367 Timothy Skyway Apt. 966 Garciaview_ KS 18956,crystalsanchez@example.com,Telegram,ES,-0.18333,38.96667,76916
678,Christopher Miller,392.828.3935x972,USS Coleman FPO AA 11980,thomasrobert@example.com,Instagram,HK,114.10479,22.37066,87529
180,Marcia Banks,653-555-5255,442 Richards Forges Apt. 347 Port Justin_ KY 06694,allenmathew@example.net,Whatsapp,CD,15.16554,-4.5833,82153
871,Allison Nichols,+1-873-587-9546x36158,524 James Ports West Jared_ HI 41537,pgallegos@example.org,Twitter,ES,-0.76773,38.38479,74299
479,Alexis Saunders,(478)384-7326x55086,2642 Anne Hill Apt. 770 North Christopherfort_ AL 76232,michaelfitzpatrick@example.com,Twitter,US,-73.47429,40.68066,87922
862,Rebecca Campbell,740.551.9061,12107 Park Lodge West Raymond_ AR 09395,kgarner@example.net,Whatsapp,CA,-73.75335,45.4473,72300
269,William Wilson,001-518-576-6446,2644 Savage Ridge South Willie_ CA 77478,chambersnicholas@example.com,Twitter,US,-87.70172,41.72059,72217
525,Christopher Morales,(117)312-8094,72543 David Inlet East Tami_ GA 17278,bensonangela@example.com,Whatsapp,US,-76.88442,40.2737,76549
554,Kelsey Johnson,572-831-9825,270 Thompson Neck Lake Paigeville_ FL 85336,brittanytodd@example.net,Whatsapp,US,-73.75513,40.60538,08695
270,Melissa Travis,(255)077-3129,270 Arroyo Forge Apt. 608 East Williamport_ OH 72317,lwilson@example.org,Facebook,CH,6.10237,46.18396,59514
824,Juan Nelson,(172)821-2342,7259 Bennett Key Suite 075 New Miranda_ AZ 61680,xhansen@example.org,Twitter,BR,-52.51028,-28.81833,46642
355,Cassie Miller,5171681315,644 Blake Islands Apt. 595 Gonzalezburgh_ GA 73188,hartmanbryan@example.com,Whatsapp,IR,51.67462,32.65246,18370
700,Regina Brown,040-661-2347x1922,991 Haley Walks Apt. 982 Amystad_ KY 54622,paulflores@example.com,Yahoo,PL,16.86194,54.58048,90572
246,Teresa Gray,(499)903-4380x870,12577 Kim Lodge New Kimberly_ VA 97094,xlopez@example.com,Twitter,IN,73.7553,15.5439,63455
708,Sarah Allen,001-525-170-7889x294,64361 Baker Way Suite 711 Cunninghamborough_ NV 68364,rwillis@example.com,Facebook,ET,38.01667,11.85,53222
987,Jennifer Olson,001-058-065-2697,25059 Randolph Flat Suite 779 Moonburgh_ WI 08075,farmerandrea@example.com,Instagram,US,-77.70066,43.16547,72048
104,Alan Williams Jr.,384.991.2580x9548,96515 Serrano Key Apt. 492 Benjamintown_ SD 78748,osmith@example.com,Telegram,MX,-96.72365,17.06542,08480
411,Richard Daniel,942.094.2733,8050 Flores Field Turnerfurt_ SD 59339,jenningsjoanna@example.com,Whatsapp,US,-73.78458,41.0051,16724
422,Janet Herring,001-096-711-9109x073,12167 Ruiz Wall Apt. 964 Brianbury_ OK 76711,scott71@example.com,Affiliate,US,-86.77917,36.02506,41899
335,Shirley Hobbs,(468)226-9073x49423,16434 Blanchard Brook Suite 896 South Eugeneside_ FL 57729,ifrench@example.net,Whatsapp,HN,-86.57415,15.48131,40885
545,Steven Freeman,(087)442-2409,4828 Zoe Falls Apt. 886 Tylerberg_ NJ 31131,mitchellangel@example.net,Telegram,HT,-72.22625,18.57677,12075
118,Isaac Lowe,001-543-600-1295x9200,212 Amy Lodge Smithport_ WI 74360,youngsamantha@example.com,Affiliate,IT,9.29109,45.39402,34901
253,Michael Montoya,+1-262-316-2327x5991,64458 Jamie Street Apt. 503 Camposland_ CA 81450,benjamin09@example.net,Yahoo,IT,9.40531,45.53069,83465
405,Leah Simon,001-056-447-7761x128,08911 Richardson Ways Thomasfurt_ NJ 27813,lovemelissa@example.com,Affiliate,MX,-100.44843,20.74122,46269
25,Debbie Hall,912-633-4088,64195 Emily Squares Jeffreybury_ NC 40808,jesus74@example.net,Twitter,PH,124.3697,9.6531,61066
495,Patricia Moore,001-431-830-5815x88480,417 Griffin Junction Suite 261 Brittanyfort_ OK 55910,rachel04@example.org,Telegram,VN,105.75635,10.29085,42203
723,Brianna Maynard,001-253-849-9852x057,USNS Gill FPO AE 78917,nperez@example.net,Affiliate,US,-118.03917,33.95015,95486
297,Shawn Miller,001-115-101-8242x73335,149 Rodriguez Crossing Suite 348 West Thomas_ VT 65489,ajames@example.org,Instagram,JP,140.73667,41.77583,29409
511,Jeff Lee II,155-725-5950,19657 Nicole Estates Churchton_ CA 14168,williamsbenjamin@example.com,Telegram,MY,103.81667,1.6,73377
623,Samantha Casey,593.540.4763x622,USS Medina FPO AA 77217,nicholasbarnes@example.com,Telegram,US,-73.9625,40.81,24295
302,Tammy Collins,(254)594-9339,01911 Travis Terrace Heidiberg_ DC 11444,jonathan97@example.net,Whatsapp,JP,136.84186,34.4833,96850
127,John Ballard,+1-293-965-6462x29871,940 Griffin Forest Suite 349 Andrewton_ VA 99046,armstrongcolleen@example.org,Whatsapp,RU,35.96944,56.03361,62890
17,Jason Williams,(906)112-6486,645 John Roads Danahaven_ MS 54060,butlerjessica@example.com,Yahoo,UA,36.25361,47.48444,24610
724,Brent Wright,(514)673-7305x211,Unit 9032 Box 8512 DPO AE 07757,julian97@example.com,Facebook,FR,4.63031,43.67681,53312
699,Karen Black,4315260426,483 Short Meadow Vincentburgh_ ND 10015,fordjoshua@example.com,Facebook,AT,16.4,48.25,30799
421,Michelle Garcia,9581709895,2720 Jerry Village South Dennis_ WI 03699,leekimberly@example.net,Facebook,DE,8.70745,49.03685,04915
539,Nathan Bennett,837-070-9019,84188 Williams Curve Suite 966 Port Michelle_ IL 56836,misty63@example.org,Whatsapp,IQ,44.02488,32.61603,36549
930,Chelsea Kelly,100.690.2595,93328 Bradley Expressway Loganberg_ ND 52177,paulbryant@example.org,Instagram,ES,-3.53261,40.42386,77690
718,Paul Moss,235.174.5082,91500 Rios Freeway Philipborough_ MI 19116,scott75@example.com,Twitter,KE,34.11169,0.46005,50126
883,Megan Valentine,919.897.3359x12325,90016 Thomas Garden East Brandon_ UT 06881,michelegardner@example.net,Instagram,MX,-94.91386,17.94979,62956
176,Elizabeth Robinson,+1-668-532-4120,18110 Dylan Wall Anthonyville_ PA 95777,drakefrederick@example.net,Yahoo,DE,9.02596,48.21644,48491
650,April Blevins,092-744-6512,32039 Perkins Pike Jacobland_ AL 17546,rosalesmolly@example.org,Facebook,DE,6.51352,51.19139,75551
108,Melissa Howard MD,333-361-8425x60808,3841 Vincent Manors Harryville_ VA 97386,gordon43@example.net,Telegram,GB,-2.1875,51.26,08120
900,Paul Brown,(856)617-4589x588,28725 Bell Street New Ernest_ NM 55047,wbailey@example.org,Instagram,US,-81.56929,41.55838,12187
920,Anthony Dickerson,652-941-7605x093,12564 Eric Square Apt. 217 Jamestown_ SD 39344,carpentersusan@example.net,Affiliate,IT,7.60872,43.78956,68127
750,Troy Schroeder,546-756-4108x00327,Unit 1782 Box 1383 DPO AP 95439,donbarnett@example.org,Telegram,UY,-56.52361,-33.38056,73093
792,Christopher Harper,(976)124-2444x57950,537 Bowen Mountain South John_ IN 67405,kcruz@example.org,Telegram,CR,-85.43772,10.63504,12875
489,Thomas Cox,525-130-7812,35258 Joseph Plaza Port David_ PA 30964,deckerrebecca@example.net,Instagram,BR,-48.52333,-0.71667,25313
602,Leah Fisher,758.795.2526x13409,63829 Nguyen Forge Suite 194 Lake Rebekah_ AL 05590,jenniferramirez@example.org,Instagram,US,-118.10583,34.09611,39710
114,Laura Mccann,001-847-719-4516x501,183 Sharon Brook Apt. 471 South Joyceview_ NY 40003,james69@example.com,Yahoo,TR,34.37389,40.1675,16357
627,Robert Vazquez,(033)141-7901,820 Mitchell Loaf Apt. 785 Jamesstad_ MN 61248,kblackburn@example.com,Whatsapp,PE,-69.08333,-16.25,69214
132,Donald Chandler,6792020865,78346 Ryan Mission Suite 231 New Jeffside_ MD 36844,joanbrown@example.net,Instagram,AT,16.4,48.25,94487
751,Daniel Horn,912.914.4753x4421,770 Kaufman Estates Suite 541 Davidfurt_ TN 11533,nrussell@example.org,Affiliate,US,-75.60804,39.96097,06502
482,Dana Luna,(070)578-2666x01514,980 Rich Tunnel East John_ LA 68764,robert67@example.org,Telegram,VN,105.75635,10.29085,39217
320,Ian Holt,001-762-881-8671x93496,379 Betty Brook Suite 665 Aaronview_ IL 94571,howardderek@example.com,Facebook,NL,5.22778,51.955,33809
784,Cassandra York,001-067-002-7972x666,42450 Lindsey Harbors Leechester_ WA 40582,icruz@example.net,Yahoo,FR,1.33467,43.61058,44487
565,Traci Lutz,(948)159-7118,287 Maria Key Suite 912 North Alanmouth_ SC 84667,aliciasnyder@example.net,Telegram,IT,11.04979,44.59445,39542
139,Laurie Hendrix,412.089.8787x42065,003 Townsend Run North Tanyafort_ IL 15843,shelby27@example.net,Facebook,ET,38.01667,11.85,85409
126,Douglas Haney,491.167.2532,907 Payne Freeway Meltonborough_ CT 44073,jennifergarcia@example.com,Twitter,GB,-0.91979,51.42708,43837
570,Amber Pierce,384.381.0618,24050 Julie Center Apt. 349 Lake Victor_ WV 80423,ochapman@example.com,Affiliate,AU,145.18333,-37.9,78166
982,Alexa Johnson,2688840957,789 Valentine Plains Apt. 711 West Sarah_ AR 44217,felicia88@example.net,Instagram,PT,-7.32097,41.1053,88999
646,Jonathon Jackson,001-280-441-5209x360,7176 Heather Stravenue Suite 007 Downshaven_ NV 39311,christina87@example.net,Twitter,CN,115.70111,37.73222,03077
553,Raymond Perez,001-648-326-6962x535,9537 Harvey Ford Apt. 500 Beltranfort_ MO 91914,richardsonmegan@example.com,Affiliate,US,-87.70172,41.72059,78018
89,Amanda Daniels,787.995.5510,3690 Christina Park Toddburgh_ TX 56713,vkey@example.net,Whatsapp,MX,-98.11889,19.04222,26443
734,Annette Benjamin,416-006-5192x041,20149 Mcdowell Circle Stricklandborough_ NM 11501,hornrachel@example.net,Affiliate,IN,85.83334,20.88197,13722
220,Sarah Garcia,(681)594-4677x66641,PSC 8889_ Box 9605 APO AE 52927,austin50@example.org,Facebook,LY,10.18003,24.96334,12091
917,Amanda Reyes,778.003.4250x78385,3738 Melissa Common West Amandatown_ CO 39772,vicki76@example.org,Whatsapp,FR,5.03586,43.83125,91718
18,John Clements,418-927-6266,8257 Timothy Ford Suite 079 Smithport_ WI 82934,amy26@example.net,Affiliate,DE,10.5511,52.47774,49206
449,Tommy Alvarez,483.882.3503x018,7796 John Garden Suite 417 West Kevin_ MO 11934,phillipmiller@example.org,Telegram,BY,25.8191,53.5942,10355
845,Brianna Patterson,+1-587-173-8285,72086 Booker Roads Suite 651 Amyton_ VT 77644,gonzalezjared@example.org,Telegram,US,-93.71133,41.57721,40628
756,Christina Smith,(376)094-7042x746,646 Murray Land Trujillohaven_ OK 46136,jessica19@example.com,Twitter,DE,9.15214,49.97704,43721
610,Corey Mcdaniel,638.795.6094,79720 Jason Views Lake Patty_ KY 43273,jeffrey67@example.org,Telegram,AR,-60.93173,-31.4488,49782
29,Michelle Simmons,+1-197-299-0456x007,273 Martin Terrace Suite 547 Smithhaven_ LA 72649,xmadden@example.net,Telegram,US,-71.8023,42.58342,90109
103,Wesley Bailey,(243)156-2449,12661 Erica Gateway Apt. 357 Port Gavinburgh_ PA 77615,sawyersamuel@example.com,Twitter,TH,99.96667,8.43333,44665
868,Sheila Cook,180.132.1498x37529,7173 Cantrell Gardens Apt. 041 Tonyland_ ND 03865,zho@example.net,Yahoo,PL,15.00835,51.14942,48196
357,Eric Kramer,001-164-718-4250x1073,3033 Brady Throughway Suite 892 Johnton_ TX 82204,jennifer99@example.org,Affiliate,CA,-73.75335,45.4473,63076
630,Anthony Green,817-226-9178,7023 Brittany Station Ianborough_ KY 05775,josethompson@example.com,Yahoo,MX,-102.04897,19.64745,90065
227,Justin Mitchell,6898271190,Unit 3330 Box 1133 DPO AA 49209,janet59@example.org,Yahoo,IN,76.0586,16.06213,13867
822,Christopher Rodriguez,+1-915-031-1406x635,411 Day Expressway Suite 141 North Nancyville_ MN 18702,robertwalker@example.com,Whatsapp,US,-104.22884,32.42067,77129
242,Jessica Mccall,331.429.0644x8848,4856 Julie Village Apt. 712 Michaelchester_ KY 95410,gwhite@example.com,Telegram,MY,103.6032,1.6561,72428
120,Isaac Stewart,257-155-4526x332,930 Taylor Mill Suite 910 Robertsborough_ AL 93632,richardharding@example.com,Telegram,IT,9.29109,45.39402,24739
342,Matthew Stevenson,020.568.2386,13106 Carlson Ranch East Katherine_ PA 30851,taylor87@example.com,Yahoo,IN,74.4818,30.21121,90118
676,Caitlyn Jackson,284-062-3882x749,874 Michael Centers Mackmouth_ LA 03510,kimberly18@example.com,Facebook,ES,-2.68333,43.31667,97414
942,Theresa Armstrong,+1-938-535-7433,022 Veronica Neck Apt. 251 Timburgh_ MN 97458,rachelmurphy@example.net,Facebook,US,-118.03917,33.95015,35273
829,Ryan Richards,+1-124-163-1937,301 West Wells Suite 668 Tylerfort_ OH 79730,kimberlymason@example.net,Affiliate,VE,-68.30472,9.91861,30925
236,Donald Prince,001-896-167-7661x0340,62369 Renee Brook New Jacquelineview_ KY 78812,fgonzalez@example.org,Instagram,UA,36.25361,47.48444,35965
618,Christopher Brown,(639)157-3849x4702,4524 Heather Summit Apt. 090 Lake Paulborough_ DC 89524,emily56@example.net,Yahoo,RU,92.48278,58.23583,80799
709,Michael Davidson,(231)640-1049x8467,3319 Charles Drive New Cory_ CT 80456,jimmy78@example.net,Telegram,DE,6.51352,51.19139,91047
188,Bradley Franklin,0231629951,9183 Hutchinson Mount Johnville_ NM 66572,mcculloughjeff@example.com,Telegram,BE,3.20639,50.74497,40272
651,Michael Martinez,+1-459-932-6073,484 Hamilton Divide Suite 208 New Victorstad_ NH 40760,smithgregory@example.com,Yahoo,IN,88.1453,22.4711,63883
301,Kaylee Francis,+1-233-431-9077,6665 Mikayla Cape Suite 419 Montgomerystad_ ND 71988,ann69@example.org,Facebook,IN,77.656,28.71271,92008
163,Erin Pena,187.344.0594x94345,6711 Gonzalez Run Apt. 345 Lucaschester_ WI 71533,gsweeney@example.net,Twitter,DZ,3.50309,34.15429,80859
844,Anna Edwards,+1-049-063-2569x4917,160 Edward Corner Stewarttown_ VT 81635,david87@example.com,Instagram,CN,120.14278,32.50611,32701
71,Sarah Delacruz,+1-302-390-6227x808,275 Hall Run Emmaborough_ MI 64745,michael94@example.org,Instagram,BR,-37.07167,-10.91111,94903
976,Jose Thompson,305.681.1531x728,72073 Steven Ridge Suite 049 Valenzuelaview_ TN 44568,bryan71@example.org,Facebook,IN,78.95693,29.21399,90221
205,Bruce Smith,151-758-6618x902,0092 White Mount Suite 975 Denisestad_ NM 05301,rbuchanan@example.com,Twitter,RU,89.20083,55.54028,50922
290,Matthew Wolfe,001-185-098-4771x7700,03668 Michael Street Taylorfort_ WY 81650,courtneysilva@example.org,Yahoo,IN,76.0586,16.06213,41795
412,Joanna Moran,+1-735-473-9100x530,0104 David Squares Apt. 159 Emilyland_ ND 85950,gabrielasanchez@example.com,Twitter,TN,10.03478,37.16911,01556
501,Diana Navarro,736-846-1376x03944,40152 Rhonda Courts Alishaberg_ MT 67432,shannon84@example.net,Twitter,TN,10.03478,37.16911,45776
144,Tiffany Mann,331-632-3056x1198,25765 Michael Highway Suite 627 Lake Steven_ ND 83037,logan02@example.net,Instagram,US,-72.27814,42.93369,49436
327,Breanna Diaz,724.125.1480,58068 Johnson Forks Port Crystalside_ AL 25775,sarah28@example.org,Whatsapp,BR,-50.19556,-19.72806,69755
536,Kelly Stokes,001-267-434-3742x10973,8024 Brian Lock Port Anthonytown_ NJ 67848,ashley45@example.net,Whatsapp,US,-98.15529,26.18924,36560
92,Rebecca Walker,5846891428,3007 Miller Pine East Courtneyshire_ OK 34355,turnersamantha@example.com,Instagram,ID,99.1625,3.3285,93490
892,Chloe Garcia,901-429-4684,977 Christopher Locks Apt. 737 Kevinberg_ ID 46401,karenjones@example.org,Instagram,US,-116.37697,33.72255,79548
277,Kenneth Sherman PhD,001-370-195-2161x726,838 Christian Lodge East Mark_ NE 31181,gerald89@example.net,Yahoo,IR,47.3799,33.14447,96339
256,Jonathan Wright,387-241-9880,USNV Williams FPO AE 85606,dixonkimberly@example.net,Yahoo,US,-120.93549,37.73604,11321
468,Michael Melton,+1-495-997-1961x311,6920 Johnson Shoals Noblestad_ MD 11484,sramirez@example.com,Telegram,TH,104.64992,14.64056,60865
133,Tina Burke,(170)754-6208,3498 Brian Burg Lisamouth_ VA 80635,joshua55@example.org,Facebook,US,-118.03917,33.95015,11854
989,Brittney Juarez,+1-144-626-8065x501,4971 Russell Street Apt. 978 Port Tylerton_ IA 05434,stanleygreene@example.net,Telegram,RU,60.8019,56.9083,99629
430,Jennifer Wilson,(541)219-0668,8010 Daniel River New Meganmouth_ IL 27149,dgardner@example.net,Twitter,IT,14.34085,40.87363,51203
299,Sierra Blevins,(621)383-7281x172,44379 Campbell Viaduct South Katherinehaven_ NM 31055,williamsrandy@example.net,Telegram,JP,137.5,34.9,08044
608,Kerri Burke,9373234674,960 Harper Dale Apt. 160 Port Wendyshire_ NV 23756,gregoryfletcher@example.org,Whatsapp,PH,120.5875,16.455,18949
166,April Walker,+1-255-343-8064,00923 Amber Crossroad Suite 229 Casefort_ ME 73197,erikapineda@example.net,Instagram,DE,9.47629,53.59337,40587
518,Todd Nelson,162-081-0326x063,707 Andrea Glens Beckerville_ CO 91409,oclark@example.com,Affiliate,SK,17.22635,48.8449,13010
110,Crystal Rowe,(118)924-5783,925 Kathleen Ways West Edwardhaven_ PA 32990,navarropatricia@example.org,Whatsapp,TZ,33,-2.68333,54555
799,John Hicks,(372)503-4385x06172,8239 King Springs Davidfort_ MT 76841,douglas97@example.com,Telegram,IN,77.656,28.71271,33003
574,Perry Ramirez,132.671.0055x503,954 Chapman Spur Lake Daniellefort_ OK 09898,carterscott@example.com,Affiliate,PK,73.97117,31.96258,65413
364,Kimberly Walker,+1-998-249-9755x735,9026 Cox Haven Apt. 815 New Jessica_ WA 07711,robert23@example.net,Facebook,US,-97.92977,38.06084,92554
308,Kenneth Hunt,+1-286-297-5598x85595,919 Karen Lock South Annehaven_ NE 50695,randy95@example.net,Yahoo,ES,2.18247,41.41204,32990
855,Elizabeth Stewart,(135)284-9505x744,872 Ramirez Forest Suite 670 Port Jessica_ LA 67355,erika46@example.org,Instagram,IT,15.00913,37.51803,47039
533,Christian Schmidt,133.131.4407x48763,129 Villegas Track West Jenniferstad_ DC 49358,wareangela@example.com,Telegram,ES,-1.64295,42.8139,90632
10,Karen Rogers,171-760-4522x96111,60168 West Overpass South Christopher_ KS 77208,ryanhoward@example.org,Affiliate,CL,-70.6996,-33.59217,13529
65,John Nichols,157-668-7868,68521 Eric Lights Lake Carlosview_ ME 46668,umorales@example.net,Whatsapp,ES,0.57856,40.70995,59622
690,Robert Thompson,(761)202-6328,44938 Hall Passage Suite 176 North Carolhaven_ NE 76496,ipearson@example.org,Facebook,US,-74.96933,39.71734,54765
402,Manuel Richard,295.440.0139x816,4570 Cross Isle Matthewberg_ FL 90689,leon26@example.com,Facebook,BR,-41.45861,-4.42472,02930
156,John Gray,805-597-3769x95667,30702 Frank Forest Apt. 163 East Nicholasville_ MA 67779,emmabrown@example.org,Twitter,US,-72.97261,43.61062,24378
191,Aaron Powell,+1-147-057-0722,Unit 9575 Box 0139 DPO AP 97192,millerrobert@example.com,Twitter,NG,12.19458,10.61285,50614
541,Justin Brooks,(566)701-3871x882,1436 Crosby Cliffs North Julie_ ME 62092,adam45@example.com,Whatsapp,CG,15.28318,-4.26613,93131
745,Dr. Alfred Ryan V,001-375-660-4543x7183,5750 Julia Ville Suite 468 Andrewville_ KS 86407,juliasharp@example.org,Telegram,BE,4.52529,50.71229,99862
555,Linda Henry,823.250.9265x254,7417 Pierce Passage Suite 408 Loganchester_ NJ 27300,craig02@example.org,Twitter,PK,68.11759,26.9423,81937
234,Cody Johnson,595-125-4818,220 Torres Flats Apt. 470 Amandaville_ SC 02223,jacksonduncan@example.com,Facebook,KR,128.9889,37.1759,46370
782,Destiny Ramirez,8292909303,9996 Daniel Hollow Lisatown_ WY 69640,scottstephanie@example.net,Yahoo,NL,7.00417,52.26083,16591
912,Andrew Vega,284-114-3748,89313 Morris Crossroad Henryport_ OK 85818,kelli68@example.com,Facebook,ET,38.01667,11.85,93498
226,Jill Richardson,+1-241-654-5981x336,133 Zuniga Summit Robertston_ SC 08684,zmyers@example.org,Affiliate,CG,15.28318,-4.26613,18532
105,Casey Berry,+1-100-126-6923,06642 Johnson Island Stonehaven_ MI 78600,ericaperry@example.net,Whatsapp,IT,14.34085,40.87363,39023
523,Sabrina Reed,(924)771-9136x221,933 Weaver Crossroad Suite 841 Kristatown_ MT 98453,qwood@example.com,Affiliate,US,-74.38987,40.65538,23521
30,Amanda Foster,657-004-0494,Unit 3885 Box 6431 DPO AP 43681,brendacortez@example.net,Instagram,MY,100.24529,5.4709,34900
379,Michael Alexander,329-840-3464x05371,593 Sharon Junctions Port Reginashire_ AZ 91030,smithcrystal@example.org,Affiliate,ZA,29.24152,-26.93366,35237
452,Jason Ross,869-290-2550x18818,93286 Young Rapid Julianview_ NM 72291,martinezmichelle@example.com,Twitter,US,-122.39168,40.58654,46677
129,Sarah Wiggins,(671)331-2676,086 Jackie Streets North Natalie_ OR 63390,zcarlson@example.com,Instagram,BR,-42.29444,-4.24444,68927
729,Brandy Rogers,+1-662-602-2213x8194,61681 Chandler Knoll Jasminehaven_ WI 49582,alison82@example.org,Telegram,ES,-5.55835,42.64685,26420
160,Craig Marks,+1-715-682-0699x292,883 Sara Fork Suite 069 Williamsmouth_ MD 21886,nguyenvictoria@example.com,Affiliate,ES,3.1631,41.91738,29615
268,Charles Robinson,400.687.1504,14801 Devon Locks South Jesseton_ HI 68672,christine24@example.org,Facebook,PH,123.758,10.20898,52882
151,Mitchell Costa,839.831.8618x04550,909 Wright Groves West Fernando_ NM 97414,tinaholder@example.com,Affiliate,PK,68.75915,27.52948,56293
626,William Smith,809-209-6495x1022,754 Young Estate Lake Patricia_ IN 73079,smithheather@example.org,Telegram,BY,31.3237,52.4089,69225
424,Richard Smith,(901)618-2992x773,9546 Murphy Neck Katieside_ AZ 47778,scott82@example.net,Yahoo,PK,70.91106,29.38242,29983
61,Cynthia Morrow,001-551-961-0209x8453,52272 Willis Wall Apt. 006 Lake Deborahberg_ CO 55462,martin93@example.net,Facebook,US,-83.55521,41.66394,41186
992,Sarah Williams,619.898.7693x1447,695 Townsend Turnpike Melissaberg_ NJ 80041,ronaldbrown@example.net,Instagram,CA,-73.58248,45.40008,61110
502,Richard Bruce,+1-747-141-7031,98490 Sara Cliffs Hallstad_ MO 53394,stefaniewashington@example.org,Facebook,KG,73,40.93333,36084
598,Dr. Sarah Baldwin DVM,001-847-214-9089x291,51259 Richard River Apt. 110 Lake David_ VT 38477,umccarthy@example.com,Twitter,TZ,38.66667,-6.25,93048
63,Lawrence Beltran,(166)705-2169,36009 Anderson Street Richardside_ WA 58918,annwinters@example.net,Twitter,MX,-89.66123,21.28306,10296
753,Lori Moore,115.710.5910,1200 Brian Freeway Apt. 403 New Heatherport_ KY 72637,dvargas@example.org,Instagram,US,-74.15987,40.82232,57562
472,Sandra Gay,(151)557-6424x9078,79577 Walls Crossroad Port Stephen_ PA 37625,frank63@example.org,Affiliate,RU,43.67663,53.53041,14735
839,Mr. Michael Atkins,001-341-779-0860x225,845 Rita Estates Apt. 490 Anthonyton_ AL 02138,melissaking@example.org,Telegram,CH,6.10237,46.18396,50494
891,Sarah Stephenson,001-999-029-5691x326,240 Kane Harbors Randallborough_ NE 75791,james44@example.com,Twitter,BR,-39.25,-12.91667,24828
950,Kathy Robertson,(481)591-9569,0877 Nolan Drive North Michael_ LA 26967,pam74@example.org,Affiliate,BR,-34.88111,-8.05389,10452
631,Angela Jennings,+1-758-139-9460x809,93944 James Street Apt. 190 Perezville_ NC 47816,greenlinda@example.net,Instagram,DE,9.85,53.63333,29613
875,Frank Roberts,(732)229-5341,51004 David Street Apt. 960 Callahanport_ AZ 86221,brandonlee@example.net,Telegram,IN,77.40858,24.05979,02320
732,Gabriel Howard,5755280311,USNV Acevedo FPO AP 32532,nmorgan@example.com,Telegram,AU,150.99292,-33.75881,95294
346,Christopher Burton,994-222-6064,5880 White Trail New Samanthastad_ OK 65343,gjohnson@example.com,Affiliate,UA,25.34244,50.75932,37605
791,Michelle Nelson,+1-438-225-8069x427,1250 Wiggins Via Suite 556 Johnsonfort_ MI 68705,cabbott@example.net,Affiliate,XK,20.89389,42.62833,98010
859,Elizabeth Peterson,6212948489,5004 Mcdonald Square South Samanthafort_ WV 11539,qbuchanan@example.org,Whatsapp,TN,9.37082,36.08497,97958
245,Jade White,(991)865-4519x2733,92504 Evan Plain Timothyland_ OR 43248,williamsmarcus@example.org,Facebook,IN,71.30633,21.34222,38880
400,Heather Moore,875-711-3154,619 Ferguson Fields Frederickton_ WV 12776,ylittle@example.org,Instagram,US,-99.73314,32.44874,47388
759,Alexander Fisher,2815357799,0432 Tara Ranch East Alejandrabury_ NY 98841,sarah83@example.net,Whatsapp,RU,140.72287,53.14657,81533
582,Kristopher Myers,650.457.4812x70317,955 Martinez Harbor Ashleyton_ WV 90366,joshua22@example.org,Twitter,TZ,38.01667,-5.41667,21615
716,Hannah Pacheco,001-697-040-7411x98993,668 Andrew Via Apt. 727 West Daniel_ ME 21713,nathanrodgers@example.net,Whatsapp,CA,-119.48568,49.88307,38823
363,Chelsea Smith,937-517-7508x31372,001 Christopher Locks Apt. 254 North David_ IN 27600,bonnie69@example.net,Instagram,PK,71.67164,30.29184,77385
46,Courtney Richardson,(234)375-4692x1658,556 Howard Locks Michellefort_ LA 16311,pmoore@example.net,Twitter,BR,-48.62789,-17.74431,40447
164,Kevin Garcia,0138658117,0488 Watson Mountains Apt. 830 Knightbury_ IN 89369,campbellpaul@example.com,Instagram,PK,68.11759,26.9423,63107
351,Dr. Tyler Harvey,855.452.9107,322 Andrea Tunnel Justinshire_ VT 33739,christianomar@example.com,Instagram,EG,31.4976,26.67319,08015
597,Cynthia Turner,058-320-2290x4856,653 Diaz Drive Apt. 579 North Renee_ NC 65373,payneeugene@example.com,Instagram,DE,9.47629,53.59337,99587
740,Donald Shelton,453.008.7555,467 John Oval New Robert_ IN 33856,johnny57@example.net,Yahoo,DE,6.9747,50.82709,17109
207,David Rodriguez,(452)099-8626,7546 Boyd Manor Manningbury_ MT 38983,kforbes@example.net,Yahoo,TH,99.96667,8.43333,97729
94,Brandon Stewart,511-655-4503x422,3184 Brent Summit South Stevenberg_ FL 08064,hernandezdavid@example.com,Telegram,IT,14.43865,40.87329,96074
955,Gary Bell,+1-111-735-7853x011,4639 Smith Run New Sara_ IL 95237,aprilweaver@example.org,Whatsapp,RU,40.17171,58.1908,57915
927,Emily Collins,156-510-0160,08479 Kelly Island Lake Amandastad_ DC 52144,kristinemurray@example.net,Instagram,JP,141.95,39.46667,85022
9,James Carter,(245)551-5900,456 Kelly Neck North Kyle_ NC 96008,turnermary@example.com,Yahoo,IN,74.83554,14.62072,71008
512,Tony Cook,(883)908-9289,24583 Hill Island Suite 803 Gabriellachester_ NE 90662,amy70@example.net,Affiliate,IN,79.41727,12.25282,78499
841,Mary Walker,001-302-396-4836x974,5947 Shannon Mountains Suite 359 South Johnberg_ MA 04741,ramirezchristina@example.net,Affiliate,US,-80.31727,25.67927,03568
991,Kevin Green,(992)146-6985,95636 Tran Road Suite 565 New Andrea_ CA 80428,annalawson@example.org,Yahoo,ID,113.69785,-7.73379,59035
377,Melissa Mcconnell,001-603-791-0939x29885,PSC 2307_ Box 8978 APO AA 77480,ruth71@example.com,Affiliate,US,-93.71133,41.57721,24096
215,Matthew Ramsey,234-997-4424x3863,249 Walker Union Port Lisa_ NC 79598,snyderamber@example.org,Facebook,ES,-0.18333,38.96667,20346
2,Debbie Trujillo,+1-016-097-5351,28711 Golden Overpass West Andreaville_ MA 71317,tamaramorrison@example.net,Instagram,JP,137.36215,36.75965,58525
758,Charles Lee,001-773-444-8880,315 Allen Junction East Rachelberg_ AR 19856,pvillegas@example.net,Whatsapp,IT,8.55552,40.72586,84642
717,Allison Ruiz,+1-824-276-2430x064,2783 Davis Brooks Suite 202 North Valerie_ IN 08508,cgarrison@example.net,Whatsapp,IT,9.32241,44.31771,67966
998,Kelsey Pennington,904-854-3431,36462 Jones Crest Amandaland_ MT 66761,dennis95@example.com,Yahoo,IN,77.5609,11.00599,72410
293,Jill Chavez,001.749.4691x533,9507 Brewer Islands Apt. 456 Sarahview_ KS 62326,wmontgomery@example.com,Yahoo,US,-115.98391,36.20829,44243
778,Justin Frye,256.691.5903,64545 Emily Locks Suite 915 East Kellyland_ ME 71817,khodges@example.com,Affiliate,KZ,84.87144,47.46657,64982
728,Dominique Pratt,+1-745-250-2000x620,0263 Abigail Lane Stewartfort_ KY 07522,lopezgerald@example.net,Whatsapp,IN,75.92694,14.46693,23503
36,Michelle Durham,(780)818-5011,756 Archer Wall Apt. 250 Lake David_ PA 25842,gutierrezbryan@example.com,Affiliate,US,-97.54667,30.5427,60619
866,Scott Williamson,(054)533-6313x898,63899 Martin Row South Ronaldhaven_ OK 07906,elizabethbrady@example.com,Facebook,ES,-1.325,38.47917,03719
281,Stephanie Stone,(207)230-5378,PSC 9849_ Box 3134 APO AE 17127,greentimothy@example.net,Telegram,NG,8.2926,9.58126,84551
562,Charles Williams,(982)351-4614x093,765 Erica Path New Patty_ HI 61835,ptorres@example.org,Instagram,TH,99.96667,8.43333,58416
37,Rebecca Jackson,607-599-4497,4361 Davis Burg Andrewfurt_ UT 86147,morriskrystal@example.net,Affiliate,IN,77.9129,25.6439,07347
563,Ricky Lewis,483.707.2036x1579,USNV Blankenship FPO AP 95330,kelly72@example.net,Whatsapp,NL,7.00417,52.26083,84283
87,Terri Wagner,0024322177,2025 Gonzalez Roads Apt. 872 Manuelville_ TN 90991,michaelross@example.org,Instagram,US,-97.03285,47.92526,48257
783,Rebecca Molina,5727958471,3200 Kelly Burg Colemanport_ KY 58053,emily18@example.com,Affiliate,CO,-74.95472,10.98778,58143
360,Amanda Mora,+1-885-828-7688,69603 Beard Trail Port John_ MA 95811,jmartinez@example.net,Telegram,PH,123.62494,12.37169,30205
763,Lauren Sanford,(289)005-4003x812,5878 Woods Point Apt. 768 Petersside_ WY 91379,alexandrawoods@example.com,Affiliate,PT,-9.24671,38.72706,92363
966,Cynthia Padilla,167.034.5801x8067,USCGC Hood FPO AA 80582,glen14@example.org,Twitter,AR,-58.70072,-34.74785,56044
488,Melissa Smith,001-001-655-1402,421 Baird Row Apt. 447 Port Williamfort_ ID 49334,gayemily@example.org,Facebook,DZ,3.50309,34.15429,39069
326,Christopher Robertson,540.383.9718,9930 Fischer Isle Suite 727 East Matthewhaven_ MN 94535,scobb@example.net,Telegram,CN,112.73333,38.40917,04253
919,Andrea Holland,702-525-0831,61663 Roberts Coves Suite 387 Schmidtborough_ MT 94950,vwilliams@example.org,Affiliate,BR,-48.67028,-28.24,86991
878,Erin Atkinson,759-483-6405x475,PSC 9717_ Box 8367 APO AA 01754,nberry@example.net,Instagram,TH,103.65309,16.0567,69528
652,Megan Marsh,1822584464,2551 Roberts Causeway Suite 985 Toddberg_ VA 16975,carrbrian@example.com,Telegram,BA,19.21437,44.75874,11501
375,Ashley Williams,870-599-1465,Unit 9212 Box 4405 DPO AP 43618,vgrant@example.net,Twitter,CN,120.14278,32.50611,10775
88,Amanda Rivera,(068)424-0415x6043,5812 Gonzalez Port South Justinton_ AL 04438,markwu@example.org,Telegram,US,-82.07842,26.91756,51338
423,Dr. Amber Allen,+1-067-354-4015x076,USS Jones FPO AE 44927,byrdrichard@example.com,Instagram,GA,13.58357,-1.63333,10811
485,Lori Perry,+1-592-144-9783x294,525 Robert Parkways Apt. 156 Lake Kelly_ OK 13606,ryan62@example.com,Facebook,TZ,39.25,-6.8,78257
208,Gregory Lamb,(497)283-4172x412,089 Tamara Stravenue Suite 340 Aaronmouth_ MA 13454,christopherreyes@example.com,Whatsapp,IN,75.11937,20.88098,90606
146,Alexander Owens,001-038-016-1627x994,093 Brooke Mountain South James_ WI 06440,ygilmore@example.com,Affiliate,RS,19.61222,44.97639,41678
334,Laura Herman,276.916.9290x332,523 Shea Springs Suite 538 Greeneborough_ MN 33647,nreeves@example.org,Yahoo,GB,-1.29772,50.76306,59215
75,Dwayne Stanley,397.529.2964x31227,PSC 8620_ Box 4791 APO AP 48561,garciajohn@example.org,Facebook,BE,5.37429,51.03427,19208
619,Latoya Pearson,+1-530-981-3272x710,0358 Patricia Hills Apt. 016 Veronicaside_ KS 22002,barberwilliam@example.com,Twitter,JP,142.45778,44.35056,30916
465,Andrea Dodson,+1-053-905-0657x31218,362 Kristen Parks Taylorchester_ AZ 12395,jjohnson@example.net,Yahoo,HN,-86.57415,15.48131,81651
851,Sandra Freeman,001-537-687-4192x8229,148 Reynolds View Apt. 638 Rosshaven_ IN 32697,darren31@example.com,Telegram,GB,-1.47217,53.46506,66585
550,Robin Vazquez,475-214-7293,72707 Emily Dam Apt. 182 Port Paulland_ NC 90211,watsonjennifer@example.com,Yahoo,IN,75.92694,14.46693,48227
674,Taylor Smith,810.833.9305,9551 White Cape Suite 770 Chelseafurt_ AZ 27558,jeffreyrojas@example.org,Affiliate,IT,14.43865,40.87329,70940
649,Brandy Romero,003.433.8201x03503,5449 Smith Underpass New Sheryl_ MN 56475,wilkinsontara@example.org,Twitter,RU,35.90057,56.85836,60836
771,Jennifer Suarez,257.873.8704x08782,121 Rodriguez Villages Conradchester_ HI 94911,tammy64@example.org,Whatsapp,BE,4.07601,50.88506,50845
450,Amber Howard,001-785-884-8258x73984,477 Hatfield Corner Rebeccaborough_ WV 00680,karenrodriguez@example.org,Telegram,KE,35.59642,3.11988,11058
984,Angela Saunders,854-134-2678x272,286 Stein Parks Tonyburgh_ WA 56954,amandagarcia@example.com,Affiliate,US,-73.9625,40.81,93422
988,Donna Allen,+1-585-061-6806x4332,71674 Noble Land New Kimberlyberg_ GA 85831,julia32@example.org,Twitter,US,-99.73314,32.44874,41730
809,Clarence Hendricks,001-011-598-2015x9672,4030 Luis Ford Suite 515 New Tinamouth_ WV 39847,imills@example.net,Whatsapp,CN,122.22833,40.66482,33917
595,Stephanie Smith,001-580-522-9201,2400 Michael Ways Suite 400 Port Hollyview_ MO 93021,michaelbrown@example.com,Whatsapp,PK,75.06583,32.17629,82430
903,Sabrina Becker,288.085.4180x257,992 Derek Keys Apt. 134 East Codyland_ NV 86541,garrett54@example.org,Facebook,DE,10.03988,53.6052,22272
201,Heather Austin,+1-389-652-9897x816,7956 Rodriguez Crossroad Suite 772 Lake Gerald_ SC 92783,david98@example.org,Telegram,US,-98.15529,26.18924,13592
314,Jennifer Bartlett,265.790.2785,94064 Weaver Trace Christopherhaven_ AZ 66968,sdavis@example.net,Yahoo,UG,30.98551,2.41669,14993
551,Gregory Martin,+1-978-168-0356x6364,08554 Brooks Heights Apt. 307 New Alex_ VA 89840,vmartinez@example.net,Whatsapp,RU,32.86389,53.95278,20439
222,Edward Graham,479-100-4686x306,573 Herrera Run Lake Austinmouth_ MT 65628,justin10@example.com,Facebook,US,-122.38731,45.53929,72103
633,Charles Estrada,001-185-012-8023x36550,958 Kyle Springs Apt. 526 West Amanda_ NH 02844,georgecannon@example.com,Instagram,ES,-0.18333,38.96667,03282
960,Patrick Bowen,065.231.2309,300 Jack Centers Suite 871 West Susan_ MT 78172,adamsshane@example.com,Affiliate,US,-97.90308,31.12406,27282
282,Christina Lara,441.460.8612x33258,5534 Watson Burgs Apt. 673 West Ashley_ MN 23289,lisa93@example.com,Whatsapp,GB,-0.91979,51.42708,67925
552,Randy Patel,001-054-322-0868,71210 Christopher Avenue Mckenzieshire_ VT 52844,cgordon@example.net,Whatsapp,GB,-1.29772,50.76306,89716
730,Aaron Simmons,(300)372-6493x082,85665 Shah Inlet Catherineland_ NC 13995,lauren84@example.net,Twitter,IT,8.55552,40.72586,59993
441,Nathan Parks,1261197069,4323 Hogan Passage New Adamtown_ MD 03572,reynoldsshelby@example.com,Yahoo,IN,74.85849,31.28092,57194
720,Debra Lee DVM,555-629-5219,2343 Phyllis Coves Lake Sheila_ OK 61710,walkerglenda@example.org,Telegram,RU,37.38115,55.63711,93436
85,Robert Turner,9457104374,1600 Miguel Hill Brianton_ AZ 20926,terrymiller@example.org,Facebook,JP,137.5,34.9,96578
257,Angel Mullen,(301)868-9395x675,168 Manning Field Apt. 257 Katieview_ WV 06795,mmurphy@example.org,Instagram,NL,5.2875,51.65333,80826
996,Johnathan Vasquez,216-039-3184x6182,29672 Stephens Crossroad Apt. 596 South Jeffreytown_ IL 72561,joseph33@example.org,Affiliate,MM,98.19151,14.0823,60872
283,Mr. Matthew Peterson PhD,5140904773,611 Pratt Course Apt. 286 North Jennifer_ KY 10384,justinacosta@example.org,Facebook,ES,-5.55835,42.64685,32038
852,John Roberts,933.715.8189x41577,USNV Osborne FPO AA 70766,jonathanthompson@example.net,Facebook,SD,34.3869,11.8659,43728
661,Daniel Crawford,001-067-973-1399x55285,9297 Andre Port Suite 374 Marcton_ MO 53324,jennifer11@example.org,Facebook,US,-122.24064,47.80527,16167
580,Bobby Howard,001.540.5316x652,91401 Watson Divide Davidshire_ MD 58836,brobbins@example.com,Facebook,PT,-25.66689,37.74615,04164
240,Elizabeth Turner,176-632-5104,1238 Brown Haven Port Nancychester_ PA 09368,jrose@example.org,Affiliate,US,-76.88442,40.2737,54054
276,Richard Jones,001-740-650-4331,PSC 2671_ Box 1964 APO AP 72617,cynthia99@example.net,Yahoo,FR,2.18967,48.8765,25671
39,Alexis Conrad,6220058000,922 French Manor Bradleymouth_ IA 18566,william86@example.org,Twitter,CN,120.03308,28.88162,51161
184,Christopher Davis,001-250-144-4293x678,145 Roberts Common Suite 347 East Lindseyville_ MA 56035,kennethwilliams@example.org,Affiliate,IN,76.11996,11.12018,22704
532,Hannah Martinez,001-536-161-6918,86256 Gomez Views South Jacob_ HI 37265,johnavery@example.net,Telegram,US,-104.83192,39.72943,97939
586,Jennifer Escobar,199.347.0221,3394 Richard Freeway Apt. 218 Lake Blake_ SC 26573,cody60@example.com,Instagram,NL,5.58472,52.14,56473
662,Amy Jackson,(207)763-5697x5020,PSC 5300_ Box 6099 APO AE 34519,lawsonsuzanne@example.net,Facebook,TR,34.02537,38.37255,87867
1,Jennifer Green,764.759.3824x21948,Unit 9241 Box 1578 DPO AE 46873,ostewart@example.org,Telegram,US,-88.64235,46.09273,50995
811,Jonathan Martin,(709)409-9255x86977,57977 Jonathan Shoal Suite 266 West Gloriatown_ PA 82494,vmurphy@example.com,Yahoo,MG,46.58333,-21.15,29423
697,Alyssa Gomez,(545)249-2215x516,4125 Wolf Glens Williamsville_ TX 49850,scott27@example.org,Facebook,TZ,39.25,-6.8,27610
887,Ronald Morales,7136697989,0477 Neal Walks Suite 394 West Sherriview_ UT 78862,ssandoval@example.net,Affiliate,IN,88.18466,22.19303,47442
757,Eric Barron,+1-753-332-5050x934,257 David Lodge Spencerborough_ ND 53779,austin49@example.net,Twitter,CO,-72.47417,7.83389,18468
711,Michael Conrad,(337)189-2197x3809,085 Christopher Vista Apt. 027 Carrieborough_ OR 48431,fadams@example.com,Instagram,MQ,-60.94228,14.67751,27789
854,Mary Watson,674.728.6491x42044,USCGC Smith FPO AA 56143,triciascott@example.org,Yahoo,PK,68.88871,25.95533,06268
884,Julie Duran,(139)061-0204,3793 Morgan Union Apt. 219 North Katieland_ TX 59711,amytrevino@example.com,Affiliate,BR,-48.29694,-20.87306,72657
478,Micheal Thornton,539.039.0181x61715,975 Myers Fall Apt. 832 New Robinville_ ND 03955,qjennings@example.net,Telegram,RS,22.53083,44.22639,98662
695,Alexandra Norman,+1-716-526-8738,14542 Long Street West Vicki_ AZ 85469,joanna08@example.net,Facebook,IN,75.96976,15.73628,97699
969,Matthew Maldonado,(844)596-6913,99366 Newton Route Apt. 980 Carrieview_ AZ 36524,nancy60@example.net,Yahoo,NL,5.51978,51.44889,13883
685,Kristin Scott,241.502.4037,877 Bailey Way Apt. 976 Joshuaport_ MN 32509,eric65@example.com,Instagram,BR,-52.20639,-3.20333,15623
12,Shelly Morrison,(694)711-8013,75227 Wagner Pines Apt. 918 Lake Ronaldborough_ ND 78962,epetersen@example.com,Telegram,GB,-3.05,53.81667,05149
575,Andrew Walker,4346743278,403 John Squares East Brandon_ VT 63633,michael69@example.org,Twitter,US,-93.75018,32.52515,63195
775,Pamela Newton,496-828-2462x961,1191 Mclaughlin Field North Patricia_ GA 87731,joneswendy@example.org,Twitter,SO,42.54536,-0.35817,91797
910,Nicholas Wallace,453.002.6433,67425 Michelle Crossing West Christopherborough_ AZ 76890,jacksoncarrie@example.net,Yahoo,ID,117.59152,3.31332,29951
171,Keith Lang,018.146.6457,5650 Christian Canyon Michelleberg_ AR 40112,nicole93@example.net,Telegram,RU,65.27258,58.04254,02586
21,Angela Avery,+1-605-019-0443x29431,2566 Seth Station Apt. 852 East Sean_ MS 56506,oprice@example.org,Yahoo,MM,98.19151,14.0823,09211
589,Brandon Richardson,+1-131-354-2790x1226,772 Brady Forest Lynchburgh_ NE 07266,terri23@example.net,Twitter,US,-76.43941,39.33427,56675
818,Marc Krause,(868)632-9581x0983,10211 Alvarez Hills Apt. 649 Port Terrence_ ID 37601,ebrown@example.com,Facebook,IN,78.95693,29.21399,82718
454,Douglas Miller,211-061-1184,5533 Schneider Shores Suite 908 Beanhaven_ HI 84428,michael45@example.com,Affiliate,TL,125.21972,-8.99167,43825
906,Michael Jones,2151188195,913 Davis Dale Apt. 049 West Gabriella_ WA 46991,portermichael@example.org,Twitter,AU,150.60036,-34.88422,50484
738,Kathleen Richards,773.437.9846x433,PSC 2309_ Box 9905 APO AP 35472,stewartchristine@example.org,Twitter,PK,68.11759,26.9423,19527
749,Caroline Cole,267.238.2409x7013,8186 Best Field Apt. 432 Kirkport_ NJ 68477,gmurray@example.org,Yahoo,JP,141.95,39.46667,42024
155,Megan Hickman,+1-270-185-5653x16799,997 Johnson Plain Wilsonside_ ME 13963,bob92@example.com,Whatsapp,CN,125.51176,42.64031,21481
190,Stephanie Jackson,5590437202,7638 Kathy View Warrenberg_ AK 78928,powellbryan@example.org,Whatsapp,FR,1.00288,49.28669,99043
285,Kathleen Foster,001-500-194-9468,6494 Joseph Stravenue Suite 255 Kellyside_ NE 24365,xhouse@example.com,Instagram,ES,-1.60452,42.06166,40294
399,John Lamb,001-961-974-2175x655,887 Montoya Course East Suzanneshire_ MS 35392,dustin77@example.com,Yahoo,US,-80.66756,26.68451,12887
210,Kelly Morrison,(983)854-8671x90615,52135 Karen Plaza New Jeffrey_ TX 99358,brownnicole@example.com,Yahoo,US,-88.70464,34.25807,31357
820,Paul Wade,(128)420-9131,393 Michael Lake Suite 123 Lake Joseview_ CA 37267,andrew84@example.org,Yahoo,IN,88.28637,23.07492,31997
772,Angela Moore,001-616-580-2011,778 Jones Cape South Davidside_ GA 94860,daniel83@example.org,Telegram,RU,34.34691,61.78491,48137
641,Clayton Brandt,404-693-8385,98934 Ralph Field Apt. 403 Deborahberg_ FL 38168,adamsamanda@example.org,Instagram,FR,1.00288,49.28669,97251
656,Raymond Gilmore,001-688-341-2309x944,USNV Quinn FPO AE 80235,maria74@example.com,Twitter,US,-120.93549,37.73604,36138
867,Mrs. Mary Mora DDS,001-272-606-2233x55887,836 James Pines Port Williamside_ AK 06231,vincent53@example.org,Telegram,DE,9.72749,48.28259,43180
882,Brianna Kelly,(992)667-9330x62337,23050 Jordan Way East Jason_ VA 45812,marilyn08@example.org,Whatsapp,DE,13.28702,52.4581,73367
175,Regina Green,(160)484-6957x40072,43183 William Meadows Lindamouth_ VA 63184,rlewis@example.org,Whatsapp,BY,30.2049,55.1904,66600
45,Jennifer Davis,314.251.2029x8300,178 Baxter Junctions Apt. 033 Robersonport_ IN 01676,gkelly@example.com,Facebook,JP,136.51667,35,52044
189,Amanda Hartman,389.502.1813x26531,237 Evans Estate Kennethfurt_ IA 32409,robertsims@example.org,Yahoo,CN,117.27583,35.64889,98935
569,Kyle Whitaker,001-358-899-4667x30188,9650 Jennifer Highway Apt. 206 Carrbury_ VA 07534,jose41@example.net,Whatsapp,PH,120.97844,14.8361,34200
611,Colin Wilson,679-435-5187,28375 Saunders Valleys Apt. 562 East Amychester_ MD 56098,woodscharlotte@example.org,Whatsapp,DE,11.37703,48.06919,01673
579,Carol Hamilton,001-315-645-4870x058,022 Clark Course Jenniferbury_ CT 15119,darrelllopez@example.com,Yahoo,CN,130.57211,45.75279,18283
836,Janet Schneider,759.007.0656x042,7226 Justin Neck East Daniel_ LA 35958,martineztiffany@example.com,Twitter,US,-83.2321,33.08014,35218
429,Cynthia Cruz,001-830-645-7184x8478,5350 Cervantes Squares Suite 832 Amandahaven_ VA 65788,karen30@example.org,Twitter,HT,-72.09391,18.65297,59622
219,Maria Wallace,001-331-467-6244,33370 Mary Islands Apt. 705 Hopkinston_ OK 89214,james98@example.com,Instagram,GB,-0.36053,51.64316,89467
280,Ann Knight,658-830-1767,422 Julie Tunnel Apt. 405 Pattonburgh_ GA 57094,harveyrhonda@example.net,Yahoo,IN,78.40102,27.9247,67674
137,Alyssa Mendez,001-409-347-6195x175,57344 Kelsey Cliff Savagefort_ NM 73635,kstone@example.org,Facebook,IN,72.68533,22.75218,55911
336,Gabriela Rios,134-542-2932x47672,51390 Kevin Square Apt. 389 Lake Davidton_ WY 01807,lburke@example.org,Instagram,US,-74.28459,40.5576,01693
331,Cheryl Welch,(738)281-6649x5788,553 Michael Crossroad Apt. 431 South Alicestad_ VA 79807,kthompson@example.com,Affiliate,DZ,3.55665,36.72544,65065
933,Jimmy Alvarez,(418)059-9024x944,55901 Kelsey Valleys Sandraton_ LA 90517,tbeck@example.net,Affiliate,MX,-99.32556,19.32889,78367
949,Mrs. Kelly Shepherd,7350833267,1259 Rose Stream Suite 163 West Ginaburgh_ AL 16005,bellkelsey@example.org,Facebook,CL,-70.6996,-33.59217,23391
20,Mark Powell,001-447-592-2116x69728,763 Burns Parkway Suite 707 Douglasfort_ RI 28775,kellypeter@example.org,Affiliate,MT,14.51472,35.89972,14303
413,Zachary Miller,(980)623-5051x81357,34885 Barron Land Lake Shawnview_ CA 99500,jasmin57@example.org,Affiliate,BE,4.69889,50.56149,37508
396,Emily Williams,5124040660,433 Meza Creek Apt. 568 West Jerryfurt_ NH 77178,jessica10@example.com,Telegram,JP,129.96972,33.4425,48988
19,Olivia Hall,001-640-140-0468x96714,101 Torres Junctions New Micheleburgh_ MT 38471,april98@example.net,Twitter,JP,136.84186,34.4833,12632
838,Karen Howell,936-032-9326,61825 Stokes Drive Burnettshire_ PA 69516,michaelpeters@example.net,Facebook,RU,37.38115,55.63711,39986
112,Jeffrey Davis,(084)353-9136,17463 Jessica Mission Apt. 202 North Mitchellton_ IN 30145,kscott@example.com,Whatsapp,US,-121.74052,38.54491,16074
217,Christina Wilson,436.606.0617x3502,680 Edward Forges Suite 101 North Patriciamouth_ CA 47935,robinsonamy@example.net,Twitter,US,-76.99081,38.96372,86912
843,Randall Ross,603.683.9591,53529 Michael Brooks Apt. 968 Taylorchester_ MI 88074,jscott@example.net,Whatsapp,CZ,12.87117,50.23271,52986
358,Erin Smith,886.884.0181x9608,30504 Bishop Views Novaktown_ NM 98347,stephanie87@example.com,Yahoo,PT,-8.2503,37.08819,04237
288,Christine Torres,+1-622-023-1145x72817,6298 Garcia Forks Suite 660 Ericside_ NJ 23674,shieldswilliam@example.net,Instagram,DE,7.20769,50.80019,62504
318,Justin Lee,(665)437-5495x290,01692 Brittney Oval Apt. 434 Lake Michael_ DC 30783,jenningsjeffrey@example.org,Instagram,BE,4.25633,51.21187,68089
57,Crystal Morton,(031)412-2705x8618,6670 Jenna Walk Suite 332 Port Kevin_ HI 72810,amy23@example.net,Yahoo,IN,77.23826,11.50526,22722
535,Michelle Williams,(922)027-2768x17774,8826 Christopher Streets Amberstad_ VT 84174,carlyburgess@example.net,Facebook,US,-76.51552,39.32011,87661
588,Kelly Juarez,(396)387-6405x349,684 Jacob Knoll East Gregoryville_ OH 54143,ahernandez@example.org,Facebook,US,-122.24092,47.4943,13832
496,Barbara Hubbard,+1-454-354-1154x6044,6885 Michael Lights Lindatown_ WY 47633,margaret67@example.net,Twitter,US,-82.42491,42.97086,10511
500,Natasha Miller,+1-597-607-1973x494,495 Frederick Mountain Suite 583 Farmerfort_ KY 21725,thomas29@example.org,Facebook,DE,7.20769,50.80019,38417
323,Douglas Johnson,0233048760,959 Eric Freeway North Cynthiamouth_ AZ 49621,rodneywelch@example.org,Twitter,ES,-8.2194,43.48961,15328
58,Dana Castro,001-238-407-3062,68871 Melissa Place Apt. 103 Coleview_ MI 87249,escott@example.org,Telegram,VE,-68.30472,9.91861,92936
244,Nicholas Chambers,365.076.2945x3132,75457 Aaron Burgs Suite 469 South Jeffrey_ CA 77535,curtisnicole@example.org,Affiliate,JP,137.95378,35.82756,73640
542,Kristen Davenport,049.475.8297x740,6256 Adams Groves North Andrewland_ GA 24276,michaelmorris@example.net,Whatsapp,ES,-2.98884,43.32686,50930
406,Robert Marshall Jr.,048.296.6541,5577 Victor Manors Charlesmouth_ UT 71045,hillelijah@example.net,Affiliate,DE,8.70745,49.03685,40135
42,Paula Gardner,+1-222-323-0827,516 Nolan Junctions Suite 826 Jimmyfurt_ MS 62271,tami61@example.net,Twitter,SY,36.7138,35.95664,93173
68,Cynthia Morgan,+1-253-248-2891x7732,187 Kelly Groves West Megan_ VA 03219,leejames@example.org,Affiliate,US,-75.23266,43.1009,49268
727,David Wilson,480.910.7419,0162 Nancy Parkway Suite 875 Maddoxchester_ TX 98887,morrislaura@example.com,Telegram,US,-97.92977,38.06084,20944
410,Alison Weaver,340.955.4899x357,489 Stephen Plaza North Allison_ WA 40473,kristybutler@example.com,Facebook,RO,26.01649,44.43579,29170
483,Pamela Stewart,653.301.6098x47771,533 April Camp Suite 167 Mcconnellmouth_ AR 36065,ortizamy@example.com,Facebook,ID,113.69785,-7.73379,66117
559,Holly Turner,(819)891-6546,0574 Morrison Villages Suite 578 West Christopher_ WA 20636,kimberly17@example.net,Instagram,MY,116.10146,5.90702,59721
922,David Harrison,577.612.7951x3630,61423 Jennifer Lake East Joanne_ AL 38455,umendoza@example.com,Telegram,TN,10.03478,37.16911,21265
590,Nicholas Moore,(429)583-4874,8615 Hall Trafficway Apt. 189 Dixonmouth_ SD 88833,moorehenry@example.org,Affiliate,ES,2.18247,41.41204,32973
466,Michael Armstrong,634.852.0623x48149,77499 Frost Meadow Apt. 039 Hensleyport_ WA 06385,michael94@example.org,Affiliate,IT,15.07041,37.49223,31917
990,Cynthia Vazquez,737.203.0690,52332 Morrison Knolls Lake Hannah_ NY 40833,faithsanchez@example.net,Instagram,JP,136.51667,35,52391
6,Douglas Allen,594.599.2466x1093,37696 Richard Squares Bartonton_ NV 08874,jacqueline78@example.com,Telegram,GT,-91.11667,14.93333,97365
348,Erika Kelly,598.344.5709,8306 David Terrace Suite 048 North Joeton_ RI 49820,leonfreeman@example.net,Affiliate,FR,1.00288,49.28669,83946
353,Kaitlin Pratt,001-342-543-7009x947,6540 Andrew Junctions Suite 723 North Davidchester_ AL 15233,yramirez@example.net,Telegram,US,-86.11084,41.75338,07494
497,Jennifer Middleton,985.393.9881x91119,032 Hunter Vista Apt. 328 North Angelica_ MN 02351,sarahvilla@example.net,Affiliate,RU,46.10925,43.35071,02250
671,Michele Edwards,(781)307-1461,955 Santiago Forks Suite 883 Blakeview_ AZ 21721,steelekathy@example.org,Yahoo,NG,9.0027,11.86064,01528
389,Lisa White,(303)383-7256,181 Ramirez Drive Cartermouth_ CT 18488,cunninghamjason@example.org,Facebook,MY,103.6032,1.6561,92317
889,Marcus Ortiz,865.996.0080x34759,27490 Reid Park Dianeberg_ MD 61924,allenstephanie@example.org,Yahoo,IL,34.8732,32.05971,17456
475,Scott Kim,483.949.1624x017,0482 Morgan Stravenue Apt. 002 Jamesfurt_ RI 34346,uking@example.org,Facebook,US,-122.39168,40.58654,98054
51,Garrett Stone,+1-996-297-9397,583 Bradley Dale Apt. 793 Port Tammyhaven_ SD 83609,nicole57@example.net,Twitter,RU,43.83992,55.39485,68777
668,Larry Martinez,5333799742,954 Todd Cove Suite 170 Jessicamouth_ WV 60529,denisethornton@example.org,Whatsapp,VU,168.31366,-17.73648,63191
997,Jonathan Garcia,001-707-039-7809x6979,PSC 1442_ Box 7776 APO AE 68659,johnwhite@example.org,Whatsapp,BE,4.25633,51.21187,50408
941,Debra Campbell,001-298-292-3688x488,11787 Pamela Unions Suite 050 Erikburgh_ NY 24937,meltonmichael@example.org,Instagram,CG,15.28318,-4.26613,39777
677,Christopher Reyes,+1-915-223-4880x1177,46972 Howard Cape Suite 304 Port Ryanton_ TX 71436,rachelkoch@example.com,Yahoo,GB,-1.08593,50.79205,17037
14,Brian Osborne,0992518536,09795 Tara Station Suite 264 New Michelleborough_ WY 51884,mwatson@example.com,Instagram,JM,-76.78319,18.00747,51184
140,Charles Gill,(333)800-7752,900 Stephanie Locks Kristenfort_ CT 73331,christopherhardy@example.net,Telegram,BR,-37.65,-10.91722,02985
4,Robert Garcia,(309)891-0139,1510 James Ferry South Jasonton_ AK 71835,qoliver@example.org,Twitter,US,-91.77127,37.95143,22846
790,Gloria Hamilton,+1-926-697-7554x24890,9865 Garcia Path Richardton_ IN 22901,ivelasquez@example.net,Facebook,LT,24.04142,54.39635,08050
199,Tammy Horn,001-713-056-4589,2151 Kerr Locks Port Leeberg_ MS 66751,sarah45@example.org,Telegram,BE,4.21372,51.12794,45652
273,Jeanne Bryant,242-574-3076,Unit 0438 Box 1935 DPO AE 24404,christopher29@example.net,Telegram,US,-87.71255,41.84364,38859
748,Cassandra Ward,6557912400,0502 Jessica Tunnel Apt. 707 Johnstonmouth_ NY 53910,caleb95@example.com,Instagram,US,-73.20483,41.16704,56605
312,Angela Jenkins,594.192.9490x2868,2919 Bell Plains Georgetown_ AR 95642,yboyle@example.com,Whatsapp,US,-116.37697,33.72255,10514
15,Andrew Villa,408.993.3188x6841,16116 Jessica Burgs Suite 660 Calhounmouth_ KS 10795,chad50@example.com,Instagram,US,-77.02303,38.70734,83340
445,Mrs. Kari Nelson,001-503-126-6720x1248,40455 Rowe Estates South Ashleyborough_ KY 12948,ywood@example.net,Telegram,SV,-89.71472,13.73417,59913
944,Mary Perkins,378.080.6500x52893,4165 Darren Port Lake Rebecca_ IN 10931,rachel66@example.org,Affiliate,US,-81.23621,33.98154,53111
785,Timothy Beck,(069)871-8139x343,Unit 6269 Box 3879 DPO AE 75355,brownmicheal@example.org,Affiliate,US,-82.45426,27.09978,62236
154,Jeffery Tran,115.684.3772,875 Mary Stream Apt. 557 New Joshua_ NV 24213,tferrell@example.net,Telegram,IN,88.18466,22.19303,03211
803,Janet Lester DVM,337.643.5642x299,542 Shelly Port Robinsonberg_ FL 96065,nicole98@example.com,Whatsapp,PH,120.57224,15.72892,27666
408,Joseph Mccarthy,353.664.1597x578,064 Cox Glens South Alan_ IN 24530,eric65@example.org,Facebook,RU,57.3552,51.4781,09066
11,Joseph Goodwin,176.430.3921,8219 Hernandez Lodge Suite 875 Boltonborough_ RI 29176,petersonsydney@example.com,Affiliate,US,-74.13653,40.63316,92514
793,Paul Riley,(121)545-8490x8747,83871 Bowen Plaza Apt. 450 South Melanieside_ MI 73137,kimberly27@example.net,Affiliate,AR,-60.47389,-34.64167,60477
762,Christian Kline,790-377-7026x114,83024 Nicole Camp Suite 269 East Michele_ MD 87145,markburns@example.org,Affiliate,ID,113.69785,-7.73379,79861
393,Christine Jones,+1-370-315-5496x537,Unit 1383 Box 7332 DPO AP 57009,perezstephen@example.org,Whatsapp,RS,19.61222,44.97639,39351
322,Erica Rose,182-949-7411,38463 Jillian Green Suite 085 East Gabrielle_ NH 83872,johngutierrez@example.org,Twitter,IT,14.43865,40.87329,75591
262,Ryan Russell,223-213-4408x164,16182 Elizabeth Ridges Apt. 266 Carlafurt_ NM 11354,justinhorn@example.com,Yahoo,IN,78.15794,12.1277,70608
202,Danny Russell,+1-209-844-8107x4604,9857 Moyer Harbor Apt. 113 East Joshua_ SD 41942,amyperez@example.net,Facebook,RU,38.2739,46.7055,73497
688,Jodi Herman,001-155-693-3354x8531,866 Maurice Cliff Grayville_ KY 91328,paulmiller@example.net,Yahoo,SO,42.54536,-0.35817,83004
928,Samuel Mata,776-680-4564x241,21362 David Prairie South Larry_ CA 17811,swilliams@example.org,Facebook,TZ,33,-2.68333,18582
481,Ms. Sarah Rangel,375.118.1627x1137,960 Gregory Drives Elaineburgh_ RI 49247,oconnormark@example.com,Telegram,DE,9.15214,49.97704,60725
300,Taylor Armstrong,553.003.5538x755,536 Yu Throughway Cynthiastad_ MA 00706,williamsnicholas@example.net,Telegram,US,-73.9625,40.81,65209
594,Robert Sloan,273-430-7431,726 Mejia Views Suite 962 Longfurt_ IN 17367,sharon71@example.com,Twitter,SY,38.28402,34.5624,98336
279,Willie Stein,262.317.3362,017 Anne Via Smithburgh_ NJ 67104,alicia35@example.net,Affiliate,DZ,4.08282,36.61954,90116
328,Joann Weeks,950.242.8339x623,25611 Richardson Plaza Suite 150 Masseyport_ NY 18339,emily61@example.net,Telegram,RU,38.94324,44.98901,50597
263,Travis Yu,001-583-427-0612,7855 Waters Rue Jeffreyton_ ND 81314,christopher27@example.com,Twitter,TH,101.18445,13.44581,37800
616,Jonathan Wright,001-436-282-2074x75127,73689 David Summit North Michele_ MN 05515,bdominguez@example.com,Yahoo,US,-119.0376,34.21639,19894
130,Crystal Brown,+1-835-438-6446,14431 Ricky Place Apt. 536 Camachobury_ NC 48283,lroy@example.com,Yahoo,US,-80.22588,26.2173,84383
121,Amy Thompson,189-729-6324x07575,9072 Clark Bridge Cindybury_ AL 29425,qanderson@example.net,Whatsapp,IN,76.56719,24.41288,53358
939,Robert Sanchez,+1-491-667-4369x2941,Unit 0218 Box 7736 DPO AE 23421,zsanchez@example.net,Affiliate,DE,9.22796,48.46458,54858
806,David Dixon,(829)009-4133,3257 Walker Point North Kenneth_ NY 49285,uharris@example.org,Whatsapp,CN,112.73333,38.40917,54004
935,Ashley Zimmerman,(800)993-5913x4843,8837 Lisa Burgs West Jeremyborough_ VT 38574,csmith@example.net,Telegram,RU,37.49338,55.62047,16383
940,Heather Patterson,001-575-013-1172,450 Meyer Mission Suite 144 Riverafort_ SD 12034,xgonzalez@example.com,Instagram,KG,73,40.93333,23991
141,Sarah Gregory,+1-388-483-2251x146,215 Martinez Ferry Apt. 680 Sarahshire_ MD 31426,brownantonio@example.org,Affiliate,US,-93.263,45.0408,86511
737,Paul Copeland,4308494627,13414 Jeffery Fields Lake Danielmouth_ NH 18104,annburnett@example.net,Yahoo,RU,56.36091,51.78771,21583
918,Julie Myers,(828)372-7910,292 Robert Shoal North Lisamouth_ IN 49238,patriciasanchez@example.net,Twitter,MX,-103.5687,20.22816,23675
819,John Aguilar,(756)901-2725x09961,4023 Annette Drive East Nathaniel_ WI 38725,vfarmer@example.com,Telegram,DE,9.47629,53.59337,50703
509,Elizabeth Wright,809.673.5900,USCGC Anderson FPO AP 24492,rivaserin@example.org,Instagram,US,-87.70172,41.72059,35593
24,Thomas Alexander,686-023-7324,USNV Vang FPO AE 73515,chelsea34@example.com,Telegram,CD,24.43973,0.76755,20659
213,Alex Foley,001-273-137-0561x626,PSC 8642_ Box 6848 APO AE 54995,belldana@example.net,Yahoo,MG,48.41667,-17.83333,52978
169,Victoria Wright,569.515.7012x24423,833 Tiffany Passage Apt. 875 South Taylor_ NV 72108,opark@example.org,Telegram,CN,86.00214,46.51872,18398
707,Elizabeth Mays,(229)590-1458x3788,2569 Lisa Key Byrdshire_ AL 14550,hpage@example.org,Yahoo,FR,2.29275,48.79325,39387
113,Matthew Hale,+1-803-233-1210x981,7609 Warner Fords Apt. 948 Emilyhaven_ AR 60535,sarabaker@example.net,Instagram,RU,30.38167,59.80917,70805
79,Becky Howard,001-772-566-6591x1872,736 Robert Spring Suite 924 Alisonside_ TX 44721,novakaaron@example.com,Affiliate,XK,20.89389,42.62833,17214
50,David Woods,(374)579-2813,25059 Katie Mountain Byrdchester_ ID 22457,zwilliams@example.com,Affiliate,US,-86.99666,33.45122,58969
801,Alice Hood,001-460-786-7213x86164,8612 Micheal Turnpike Apt. 546 North Crystalshire_ CT 20898,virginia08@example.com,Whatsapp,UZ,72.34424,40.78206,62156
686,Shelly Potter,486.396.6003x6454,65466 Hodge Knolls Suite 744 West Troy_ NH 18561,crystalhowell@example.com,Yahoo,CN,117.7,35.85,10100
513,Paul Allen,375-544-4926x3432,57122 Jason Knolls Apt. 020 New Kimberlyland_ OK 95946,joshua83@example.com,Whatsapp,BR,-45.94722,-21.42917,26206
477,Cynthia Winters,+1-578-132-4954x6925,601 Atkins Mountains North Raymondhaven_ IN 28168,aperez@example.net,Instagram,ES,-3.67029,37.13548,75504
519,Debra Ross,001-444-573-3191x733,90356 Susan Branch North Morganshire_ AZ 32311,thompsonjoshua@example.com,Instagram,KR,128.9889,37.1759,08745
766,Susan Mcgee,(759)017-7078x66718,53001 Lawrence Neck Port Stephen_ ME 75304,rodriguezrachel@example.com,Whatsapp,CU,-81.24441,23.15678,49822
332,Alexandra Miller,367.325.2252,5627 Martinez Summit Suite 529 Port Benjaminview_ DE 01827,fcarey@example.org,Twitter,AU,153.10236,-27.50578,32347
439,Todd Meadows,001-872-830-0083x0374,354 Mcclain Village Smithtown_ WA 30733,qallison@example.org,Telegram,IT,12.38878,43.1122,97078
869,Allison Brown,919.985.3035x2795,1937 Harrison Roads New Jacobchester_ WY 52800,wallstracy@example.net,Instagram,DE,13.28702,52.4581,95692
907,Charles Fisher,850-050-6259x294,924 Dixon Cape Lake Jeremytown_ DC 07384,jack06@example.org,Twitter,FR,1.00288,49.28669,80670
504,Megan Webb,001-036-757-0120x20246,63250 Tina Freeway Suite 956 Lake Justinton_ RI 96090,john01@example.net,Telegram,MX,-97.35992,19.8173,93345
186,Kyle Tapia,0031071438,38892 Cruz Ville Apt. 899 Carrollfort_ MT 80417,jacksonlori@example.org,Instagram,RU,59.80222,58.63667,92949
174,Mathew Price,501.044.0215x54276,16279 Johns Square Port Aaron_ CT 02786,vhernandez@example.net,Facebook,IN,86.59509,26.11527,77745
16,Crystal Diaz,+1-230-310-4509x322,4203 Rogers Highway Suite 852 North Amandaport_ MS 19758,lindastewart@example.org,Twitter,DE,8.64409,48.07667,01807
102,Sean Hunt,826.528.5921x131,65459 Ramos Path West Morganchester_ IN 99716,msmith@example.net,Yahoo,US,-97.54667,30.5427,21036
492,Elizabeth Jordan,032-247-3392x1940,9226 Jesse Stream New Michaelberg_ MT 68341,williamsjoshua@example.net,Facebook,US,-84.67837,34.06635,48105
238,Ann Garcia,+1-624-302-6835x026,USCGC Foster FPO AA 39921,nelsondonald@example.net,Whatsapp,US,-97.92977,38.06084,65305
893,Kerry Rogers,151.590.4927x087,007 Luke Hills Apt. 464 Nicholstown_ MD 01412,robinschmidt@example.org,Yahoo,CO,-75.87877,5.6561,43426
568,Gloria Reynolds,001-560-684-7937,036 Thompson Center Apt. 658 Jodiburgh_ KS 81849,marcus41@example.net,Affiliate,IN,82.85749,17.54907,69390
880,Sophia Bowman,9676857376,43630 Olson Court Apt. 556 Ryanport_ NY 31313,marissa94@example.net,Telegram,IN,76.12647,32.55531,30906
744,Rachel Mccall,(448)846-8182x23168,3496 Hall Stravenue Suite 711 East Melvin_ MD 89238,carly89@example.org,Twitter,MK,20.91361,41.92361,40342
776,Deanna Harris,(560)487-7338x700,7484 Leslie Ramp Danielmouth_ MN 83226,waynestewart@example.org,Yahoo,IT,12.70038,45.9836,23619
800,Carlos Santana,622.305.6574x75300,3155 Candice Wells Suite 286 Camachochester_ NH 54175,kmorgan@example.net,Whatsapp,EC,-79.59415,-2.13404,07839
657,Robyn Lewis,001-961-750-2004x666,378 Lauren Ramp Hillland_ OR 97047,andrewrobbins@example.com,Affiliate,NZ,178.00417,-38.65333,12257
469,Paula Humphrey,853.654.1532x7881,150 Parker Flat New Amy_ WV 34147,glee@example.com,Telegram,TR,34.37389,40.1675,43668
779,Thomas Jenkins,+1-149-582-1715,8636 Phillips Mountains Jeremiahland_ NE 25805,reednicole@example.net,Whatsapp,IT,14.39024,42.22718,40419
225,Cassie Velasquez,770.614.3963,PSC 1116_ Box 3401 APO AA 69720,ashleyjohnson@example.org,Twitter,US,-74.38987,40.65538,65502
374,Steven Tanner,001-342-424-4780x0569,3588 Jones Course West Adriana_ MI 76227,andrewbishop@example.com,Affiliate,RU,65.27258,58.04254,80333
259,Troy Blackwell,001-898-126-6607x9461,9284 Orozco Views Suite 864 Dianatown_ AZ 38137,tnorris@example.org,Twitter,RU,38.16694,54.84444,60718
544,Martha Mcdonald,001-386-664-0491,6239 Ellis Valley Powersport_ NY 65449,jennifer99@example.org,Affiliate,BG,27.25,42.7,90568
832,Teresa Lewis,+1-300-700-9951x469,Unit 9661 Box 2438 DPO AA 52383,greenerita@example.com,Instagram,GB,-1.29772,50.76306,46834
663,Kurt Johnson,353.536.6296x1691,02798 Gomez Road Rhondachester_ MN 03651,nathan52@example.com,Affiliate,BR,-37.93278,-11.48472,66718
463,Kenneth Joseph,184-621-3585,12602 Galloway Courts Suite 215 Lake Elizabeth_ VT 39423,walkerclarence@example.net,Telegram,KZ,77.0202,43.41949,26994
361,John Nguyen,(529)755-1722x49462,PSC 3365_ Box 2900 APO AP 78916,haynespatrick@example.com,Affiliate,CO,-75.69947,8.79577,70701
474,Catherine Singleton,531-313-0084x8617,PSC 1160_ Box 5772 APO AE 37793,jodisimmons@example.com,Telegram,IN,78.95693,29.21399,43672
736,Scott Villanueva,657-161-0163x337,4686 Robinson Rapid New Brandy_ RI 32152,melvinhoward@example.net,Twitter,CN,123.50266,41.94175,86303
936,Adam Abbott,9991438863,346 Amber Walk Reedstad_ MI 04037,kenneth89@example.net,Whatsapp,IN,78.27539,12.95629,14201
33,Heidi Jarvis,(357)039-3426,78132 Mclean Meadow Suite 446 Chelsealand_ AK 65056,farmerjames@example.com,Yahoo,US,-75.60804,39.96097,30425
394,Joseph Lambert,001-021-903-5767x4247,348 Colleen Fall Suite 165 Kimshire_ TX 75880,russellchristina@example.com,Facebook,HK,114.10479,22.37066,82715
95,Kenneth Garcia,001-462-874-5264x2213,715 Robles Hollow Suite 025 South Jeremy_ CA 16970,xhamilton@example.org,Facebook,US,-116.37697,33.72255,12810
747,Natalie Johnson,492.750.9925x356,5688 Amanda Vista Port Roberta_ SD 78964,markshaw@example.org,Twitter,CN,122.05228,37.19723,89802
387,Jennifer Martinez MD,+1-225-985-6502x7304,20338 Christopher Mount Huberville_ SD 11483,upatterson@example.org,Whatsapp,PK,68.21204,27.55898,05957
547,Jennifer Bolton,001-948-333-5761x21108,863 Davis Estates Kennedyburgh_ KS 13399,martindiana@example.net,Facebook,US,-74.15987,40.82232,83248
600,Bryan Castillo,(735)298-8740,4132 Marshall Shore Apt. 899 Port Eileenshire_ NM 16041,christopher52@example.net,Facebook,BY,30.2049,55.1904,88177
391,Marie Morrow,355-743-9326x8401,56316 Brandy Crossroad West Megan_ WI 88393,mgraham@example.org,Affiliate,GA,13.58357,-1.63333,36103
384,Jessica Cox,(334)542-7845x21410,002 Heidi Canyon Brookstown_ KY 35495,kwilliams@example.net,Yahoo,MA,-5.22126,33.43443,08399
260,Robert Anderson,987-344-3385x309,486 Kelly Alley Apt. 511 West Jessica_ NM 05471,uwaller@example.com,Facebook,CN,86.00214,46.51872,98738
967,Patrick Hudson,883.135.3666x37078,087 Frances Lodge Billyberg_ AZ 79557,joneswhitney@example.net,Telegram,TZ,39.28333,-10.33333,10255
645,Gina Reese,490-400-1121x6084,6572 Anthony Key Apt. 740 Gailfurt_ MA 89055,djones@example.net,Facebook,PK,71.67164,30.29184,11990
111,Melissa Mahoney,591-306-4853x9541,01745 Wallace Junctions Suite 355 Reneefurt_ AK 52117,richard90@example.net,Affiliate,RU,46.5813,54.8421,63090
243,Kelly Alvarez,(034)941-9729x41502,0125 Macias Burg Suite 199 Denisemouth_ NH 14614,uanderson@example.com,Yahoo,US,-71.05977,42.35843,08011
654,Alexa Sawyer,(977)198-3125x57765,9163 Austin Club Jessicaview_ IL 29700,paul18@example.com,Telegram,JP,138.31667,36.65,91167
170,Lisa Oconnor,112-378-2072x87203,5745 Morris Hollow Clayfort_ RI 84378,brianna61@example.net,Facebook,TN,10.03478,37.16911,61148
311,Meredith Greer,(225)631-6463,10957 Susan Ville West Davidshire_ TX 08621,joshuastuart@example.net,Instagram,BR,-37.65,-10.91722,43426
428,Paul Burton,720.985.5089,75350 Smith Throughway Suite 320 Lake Kevin_ HI 55165,zmayo@example.net,Twitter,PH,123.33471,8.56697,54964
193,Natalie Bryan,+1-515-404-0065x07952,992 Mcdaniel Village Taylorview_ HI 92278,guerrerodonald@example.com,Yahoo,RU,47.1192,42.819,62963
853,John Anderson,(852)551-1327x5116,68962 Tammy Passage Willisfort_ DE 77525,charles98@example.net,Twitter,NG,4.52514,12.74482,53341
149,Tricia Walsh,238-702-7910x4743,542 Kim Lodge Michaelfort_ MT 23762,wclark@example.com,Whatsapp,ES,-4.83076,39.96348,76006
69,Jonathan Barker,(560)105-2498x74867,118 Melissa Prairie Stephanieville_ OK 31293,williamscody@example.net,Instagram,NA,16.91667,-21.98333,60575
316,Jeffrey Edwards,(780)673-0288x9893,8731 Karen Stream Apt. 538 Fernandezport_ TX 17095,fitzpatrickveronica@example.net,Instagram,US,-93.08883,45.16024,70854
507,Jeffrey Phillips,503.142.9668,31693 Campbell Springs Apt. 882 Pamelafort_ AZ 98435,angelicajenkins@example.com,Affiliate,US,-82.45426,27.09978,83940
414,Caroline Holt,778-429-9025x15384,529 Michelle Ranch West Stephen_ PA 60003,ajoseph@example.net,Affiliate,BR,-48.62789,-17.74431,56370
77,Gary Walsh,(043)319-2383x7504,598 Bradshaw Hills South Deborahview_ SD 34818,christopher27@example.org,Yahoo,US,-88.3162,42.24113,59681
529,Justin Evans,670-678-8306x077,073 Sheila Trail Suite 883 Lake Robertland_ MN 83519,nancy67@example.com,Facebook,IT,8.55552,40.72586,60164
713,Brian Carney,(597)022-2689x0554,140 Woodward Crest West Elizabethville_ MN 58544,aclark@example.org,Yahoo,JP,137.5,34.9,94733
237,Alicia Nguyen,185.398.1777x89979,188 Brittney Village North Ronaldchester_ NJ 27599,morrissamuel@example.net,Twitter,DE,10.03988,53.6052,70990
934,Christina Flores,200.798.2447x9558,857 Johnson Mountains Apt. 980 Lake Beverly_ MD 46500,phamaaron@example.net,Affiliate,KR,128.62667,34.8825,55048
60,Katrina Morton,887.546.4780x34710,0329 Rebecca Shore Chelseaview_ TX 86571,smithsabrina@example.org,Affiliate,DE,9.02596,48.21644,35255
905,Jennifer Mcdowell,(789)612-9736x60827,USS Hansen FPO AP 95840,jonathanstewart@example.net,Yahoo,RU,35.90057,56.85836,33941
456,Sarah Mcdaniel,001-783-928-6238x78387,322 Paige Groves Suite 754 North Stephaniebury_ CA 36437,uwood@example.net,Whatsapp,US,-94.74049,32.5007,18273
898,Albert Mckinney,(282)047-0531x679,96302 Thornton Views East Jesseside_ MA 98019,cassiephillips@example.net,Instagram,DE,7.20769,50.80019,08623
347,Diana Alexander,001-307-057-2112x620,25210 Carol Rapid Suite 382 Sarahtown_ NE 14520,james30@example.net,Facebook,MX,-103.42897,20.28527,82271
13,Rebecca Sandoval,2489451744,0223 Blair Isle Apt. 076 South Pamela_ VT 11199,lisagomez@example.org,Telegram,PA,-79.62603,8.88988,31115
172,Cindy Clark,+1-762-146-5546x530,51238 Timothy Prairie Apt. 778 Lake Warren_ CO 80363,lorimccullough@example.net,Yahoo,US,-80.08199,35.88264,42741
415,Ann Norton,+1-206-435-7205x530,800 Jason Circle Suite 740 South Ashleyton_ DE 69245,cwise@example.net,Yahoo,US,-97.54667,30.5427,52438
681,Maria Vazquez,240.221.4689x4749,52203 Troy Mission Apt. 260 East Brookeville_ NH 47641,wdaniels@example.com,Facebook,AR,-58.38341,-34.64966,99547
714,Michael King,063-062-6631x304,285 Audrey Green North Kyleburgh_ IL 43095,elizabethmorris@example.org,Whatsapp,CN,122.22833,40.66482,89967
506,Deanna Thompson,+1-278-536-5634x393,6216 Howard Common Suite 942 Port Erichaven_ MD 21645,harpercassandra@example.org,Yahoo,RU,46.5813,54.8421,27852
911,John Thompson,747.443.3296,49078 Kyle Extension Boydshire_ ID 17029,zjohnson@example.org,Telegram,JP,140.73667,41.77583,90788
195,Tamara Pierce,(649)405-1955,938 Jon Passage Apt. 583 Mauricefurt_ ND 50145,mark66@example.com,Affiliate,US,-82.42491,42.97086,03706
125,Laura Brewer,(351)124-3236x63308,195 Bright Pass South Beth_ AR 74710,bakerdanielle@example.org,Facebook,ID,103.61667,-1.6,27739
872,Anne Roberts,(836)857-2349,06553 Thomas Ways Kevinchester_ LA 25493,boyermichael@example.com,Yahoo,ES,-0.18333,38.96667,91950
254,Tyler Lewis,001-720-138-2849x73267,618 Watson Court Apt. 243 Onealshire_ ID 27343,mlopez@example.org,Instagram,IN,78.15794,12.1277,13318
388,Janet French,9977659613,1155 Thompson Springs Yvetteshire_ VT 31580,wthompson@example.com,Affiliate,CN,122.22833,40.66482,26035
337,Wanda Davis,(059)105-4472x284,75424 Mclean Hollow Matthewton_ GA 74764,dwilliams@example.com,Instagram,GB,-1.08593,50.79205,25265
431,Patrick Mcdonald,001-957-840-9947x5377,820 Chris Port Lake Angela_ AK 78672,carrillojohn@example.org,Instagram,US,-74.28459,40.5576,36686
116,Rhonda Guerra,(594)470-7235,Unit 1067 Box 6905 DPO AE 89392,stevensjohn@example.net,Twitter,BR,-52.35558,-14.66463,46250
508,Jonathan Freeman,+1-767-566-7314x953,Unit 7189 Box 9315 DPO AE 57272,barbarahurley@example.com,Telegram,US,-73.95958,40.57788,37048
548,Joshua Fowler,+1-674-017-6054,941 Nelson Island Suite 073 South Jaclyn_ ME 97323,brandonward@example.org,Telegram,BR,-38.94722,-15.675,08423
908,Adam Cunningham,+1-989-962-5376x809,33519 Sandra Stravenue South Dannyberg_ LA 21132,william71@example.net,Telegram,JP,139.07204,36.24624,81689
287,Jeffery Lopez,659-625-3686,0766 Macias Oval Andersonmouth_ GA 89530,lorettamack@example.org,Yahoo,IN,72.85107,19.30157,72709
584,William Riley,(831)184-5648,092 Ayers Village North Stephanie_ MI 95021,robin89@example.org,Facebook,IN,91.00632,26.32293,76960
471,Michael Lloyd,3022319387,99131 Kristen Ville Bowenton_ CA 48719,kimberlyadams@example.com,Telegram,CU,-82.00919,23.04419,48337
416,Donald Owens,394.866.2110x0839,392 Jones Shores Loriborough_ CT 54601,bartonhenry@example.com,Telegram,TH,100.48528,14.37395,46458
916,Amy Skinner,516-760-0436x8869,714 Perez Coves Suite 945 West Williamberg_ AL 38925,michael39@example.com,Yahoo,US,-73.9625,40.81,36312
915,Michelle Potts MD,(323)495-7201x92352,65979 Carla Orchard Suite 339 Avilahaven_ AR 95333,pcross@example.net,Twitter,UA,27.06365,50.18545,07149
255,Nicole Scott,992.730.5176x2700,98360 Thomas Viaduct New Kimberly_ NY 92543,wbowman@example.net,Yahoo,IR,51.0193,35.6803,33560
808,Joshua Chang,+1-230-046-6652x10037,60188 Marshall Corners Suite 749 New Donaldmouth_ WV 39069,jwilliams@example.com,Affiliate,US,-83.48216,42.30865,45511
974,Valerie Wilson,001-442-766-3535,190 Sarah Haven Apt. 485 South Eric_ FL 80318,shelbywilson@example.org,Twitter,TZ,37.73333,-4.06667,68067
233,David Carter,227.372.2540,788 Roger Summit South Dawn_ TX 48780,simmonsashley@example.org,Whatsapp,FR,-4.1,48,21868
754,Christian King,001-379-730-0354x4044,USS Phillips FPO AP 38104,xgutierrez@example.com,Twitter,PH,123.89071,10.31672,31024
341,Melissa Smith,+1-916-570-6462,28479 Griffin Hollow Lake Jeffreyshire_ MS 50440,theresa62@example.com,Yahoo,TL,125.21972,-8.99167,76144
101,Robert Garrett,(895)716-4740,1245 Lawson Overpass Smithmouth_ FL 54778,evansgregory@example.net,Affiliate,FR,5.4584,43.32393,60558
204,Michael Cannon,400.490.0938,89402 Laura Well Suite 194 West Kristen_ SD 32742,kimmatthew@example.net,Yahoo,IN,77.656,28.71271,26119
122,Calvin Huerta,001-757-920-9665,7469 Laura Mountain Lake Ian_ NH 05450,sharris@example.net,Affiliate,NL,7.00417,52.26083,73079
212,Jennifer Alexander,001-499-107-0020x72362,28031 Amanda Avenue South Kimberly_ VT 72914,abenson@example.net,Yahoo,ES,-3.53261,40.42386,12267
680,Diana Stephenson,+1-196-790-1277x7652,58290 Carrie Isle Dayland_ AR 48103,danielbell@example.net,Telegram,PH,120.57224,15.72892,15100
117,Nancy Hoffman,120-046-8941x579,08378 Erika Light Suite 083 New Johnside_ FL 94262,ashleyfernandez@example.com,Twitter,IT,14.34085,40.87363,13961
313,Jessica Travis,563-350-9558,2861 Washington Field Kirkfort_ MT 92602,billy29@example.com,Affiliate,ET,37.55,6.03333,82490
296,Stefanie Wang,327.025.5657x55808,62260 Kelli Lodge Steventon_ MT 58644,hughesrichard@example.net,Facebook,NG,6.26764,4.92675,19657
158,Jerry Kim,341.576.5900x1997,043 Sarah Village Suite 840 Richardsonborough_ ID 41903,weberdaniel@example.org,Twitter,RU,43.2379,50.06,25836
123,Christopher Webster,225-399-2012x4944,516 Cook Ranch Suite 188 North Matthewchester_ NJ 42131,davidhenderson@example.net,Facebook,IN,76.56719,24.41288,14099
291,Joel Best,+1-089-525-5752x6620,0987 Thomas Cove Apt. 615 North Nathan_ NY 92740,karen85@example.org,Affiliate,TH,100.48528,14.37395,63401
48,Christina Figueroa,089.618.2336,3609 Johnson Key Margaretmouth_ DC 78607,kingdakota@example.org,Instagram,PH,124.3697,9.6531,79914
418,Paul Ross,001-847-275-7339,3489 Joshua Lights East Donna_ MT 48312,bball@example.org,Twitter,ID,109.05389,-7.51611,06986
134,Samantha Davis,(256)384-5548,161 Stevens Cliffs Lake Stanleyberg_ WA 24698,cparrish@example.com,Yahoo,RO,26.01649,44.43579,58300
614,Steven Stevenson,+1-976-740-5337,044 Juarez Village Apt. 101 South Gregory_ NC 76122,zlopez@example.net,Telegram,RU,37.99117,44.92934,60357
